id	externalId	latitude	longitude	city	postalCode	address	street	phone	open24h	mcDrive	open24h	wlan	coupons	toggo	mcCafe	closedFrom	closedTo	seoURL	wednesday	sunday	thursday	friday	tuesday	saturday	monday	name1	name2
64	114	48.536863397	12.1517167409	Landshut	84028	Landshut, Altstadtstr.	Altstadt 88	+49 871 21165	False	False	False	True	True	False	True	None	None	https://www.mcdonalds.de/restaurant/landshut-altstadt-88	07:00 - 22:00	09:00 - 22:00	07:00 - 22:00	07:00 - 02:00	07:00 - 22:00	08:00 - 02:00	07:00 - 22:00	McDonald's Restaurant	Rampf KG
385	537	48.5600147488	12.136622369	Landshut	84030	Landshut, Straubinger Str. 4	Straubinger Str. 4	+49 871 12582	False	True	False	True	True	True	True	None	None	https://www.mcdonalds.de/restaurant/landshut-straubinger-str-4	07:00 - 01:00	08:00 - 01:00	07:00 - 01:00	07:00 - 03:00	07:00 - 01:00	07:00 - 03:00	07:00 - 01:00	McDonald's Restaurant	Rampf-Gastro GmbH
2745	1252	53.4213844186	9.98186412131	Hamburg	21077	Hamburg, Winsener Str. 231	Winsener Str. 231	+49 40 70102827	False	True	False	True	True	True	True	None	None	https://www.mcdonalds.de/restaurant/hamburg-winsener-str-231	07:00 - 00:00	08:00 - 00:00	07:00 - 00:00	07:00 - 02:00	07:00 - 00:00	07:00 - 02:00	07:00 - 00:00	McDonald's Restaurant	Petersen-Hanson Familienrestaurants KG
2671	1172	48.5390797533	12.0959665033	Landshut	84034	Landshut, Ludwig-Erhard-Str.	Ludwig-Erhard-Str. 2	+49 871 9666852	False	True	False	True	True	True	False	None	None	https://www.mcdonalds.de/restaurant/landshut-ludwig-erhard-str-2	10:00 - 22:00	11:00 - 22:00	10:00 - 22:00	10:00 - 22:00	10:00 - 22:00	10:00 - 22:00	10:00 - 22:00	McDonald's Restaurant	Rampf KG
2772	1284	53.3636784826	9.8725737345	Buchholz in der Nordheide	21244	Dibbersen/Buchholz, Harburger	Harburger Str. 19	+49 4181 210690	False	True	False	True	True	True	True	None	None	https://www.mcdonalds.de/restaurant/buchholz-in-der-nordheide-harburger-str-19	07:00 - 00:00	08:00 - 00:00	07:00 - 00:00	07:00 - 02:00	07:00 - 00:00	07:00 - 02:00	07:00 - 00:00	McDonald's Restaurant	Petersen-Hanson Familienrestaurants KG
2791	1306	48.5393401291	12.1559149436	Landshut	84028	Landshut, City Center Landshut	Am Alten Viehmarkt 5	+49 871 1436633	False	False	False	True	True	False	False	None	None	https://www.mcdonalds.de/restaurant/landshut-am-alten-viehmarkt-5	09:30 - 20:00	geschlossen	09:30 - 20:00	09:30 - 20:00	09:30 - 20:00	09:30 - 20:00	09:30 - 20:00	McDonald's Restaurant	Rampf KG
3061	1591	53.37041465	9.80062365	Neu Wulmstorf (OT Rade)	21629	Rade, Neu Wulmstorf Bab A1	Schlepelsberg 4-6	+49 4165 2172820	False	True	False	True	True	False	True	None	None	https://www.mcdonalds.de/restaurant/neu-wulmstorf-ot-rade-schlepelsberg-4-6	06:00 - 00:00	08:00 - 00:00	06:00 - 00:00	06:00 - 00:00	06:00 - 00:00	07:00 - 00:00	06:00 - 00:00	McDonald's Restaurant	Petersen-Hanson Familienrestaurants KG
2823	1341	53.456243057	9.9878995917	Hamburg	21073	Hamburg, Phoenix-Center	Moorstr. 4 (Phoenix Center)	+49 40 32083880	False	False	False	True	True	False	False	None	None	https://www.mcdonalds.de/restaurant/hamburg-moorstr-4-phoenix-center	09:00 - 20:00	geschlossen	09:00 - 20:00	09:00 - 20:00	09:00 - 20:00	09:00 - 20:00	09:00 - 20:00	McDonald's Restaurant	Petersen-Hanson Familienrestaurants KG
177	315	50.8324140046	9.57176968016	Kirchheim	36275	Kirchheim, Industriestr.	Industriestr. 10	+49 6625 1555	False	True	False	True	True	True	True	None	None	https://www.mcdonalds.de/restaurant/kirchheim-industriestr-10	06:00 - 01:00	06:00 - 01:00	06:00 - 01:00	06:00 - 02:00	06:00 - 01:00	06:00 - 01:00	06:00 - 01:00	McDonald's Restaurant	Restaurantgruppe Sawizki KG
504	671	48.4856775041	12.0145954738	Eching (Weixerau)	84174	Eching-Weixerau, Mühlenstr.	Strogenweg 1	+49 8709 3331	False	True	False	True	True	True	False	None	None	https://www.mcdonalds.de/restaurant/eching-strogenweg-1	08:00 - 00:00	08:00 - 00:00	08:00 - 00:00	08:00 - 01:00	08:00 - 00:00	08:00 - 01:00	08:00 - 00:00	McDonald's Restaurant	Rampf KG
373	524	50.8619101	9.7203601	Bad Hersfeld	36251	Bad Hersfeld, Aral Autohof (A4	An der Haune 1	+49 6621 42223	True	True	True	True	True	True	True	None	None	https://www.mcdonalds.de/restaurant/bad-hersfeld-an-der-haune-1	24h	24h	24h	24h	24h	24h	24h	McDonald's Restaurant	Restaurantgruppe Sawizki KG
3189	5047	53.4577473471	9.98755470433	Hamburg	21073	Hamburg, Seeveplatz (Marktkauf	Seeveplatz 1	+49 40 30386867	False	False	False	True	True	False	False	None	None	https://www.mcdonalds.de/restaurant/hamburg-seeveplatz-1	09:00 - 20:00	geschlossen	09:00 - 20:00	09:00 - 20:00	09:00 - 20:00	09:00 - 20:00	09:00 - 20:00	McDonald's Restaurant	Petersen-Hanson Familienrestaurants KG
425	582	48.6264739757	12.3189561513	Wörth a.d. Isar	84109	Wörth A.D. Isar, Autohof (A92)	Luitpoldpark 3	+49 8702 8827	False	True	False	True	True	True	True	None	None	https://www.mcdonalds.de/restaurant/woerth-ad-isar-luitpoldpark-3	05:00 - 02:00	06:00 - 02:00	05:00 - 02:00	05:00 - 04:00	05:00 - 02:00	06:00 - 04:00	05:00 - 02:00	McDonald's Restaurant	Rampf-Gastro GmbH
2592	1089	48.4543208104	12.3338999803	Vilsbiburg	84137	Vilsbiburg, Ohmstr.	Ohmstr. 1	+49 8741 924093	False	True	False	True	True	True	True	None	None	https://www.mcdonalds.de/restaurant/vilsbiburg-ohmstr-1	07:00 - 01:00	08:00 - 01:00	07:00 - 01:00	07:00 - 02:00	07:00 - 01:00	07:00 - 02:00	07:00 - 01:00	McDonald's Restaurant	Rampf KG
2736	1242	53.460230723	9.9817840397	Hamburg	21077	Hamburg, Harburg Arcaden	Lüneburgerstr. 39	+49 40 32507321	False	False	False	True	True	False	False	None	None	https://www.mcdonalds.de/restaurant/hamburg-lueneburgerstr-39	09:00 - 20:00	geschlossen	09:00 - 20:00	09:00 - 20:00	09:00 - 20:00	09:00 - 20:00	09:00 - 20:00	McDonald's Restaurant	Petersen-Hanson Familienrestaurants KG
750	950	50.96228975	9.78981124869	Bebra	36179	Bebra, Gottlieb-Daimler-Str.	Gottlieb-Daimler-Str. 6	+49 6622 918014	False	True	False	True	True	True	False	None	None	https://www.mcdonalds.de/restaurant/bebra-gottlieb-daimler-str-6	08:00 - 24:00	09:00 - 24:00	08:00 - 24:00	08:00 - 01:00	08:00 - 24:00	08:00 - 01:00	08:00 - 24:00	McDonald's Restaurant	Restaurantgruppe Sawizki KG
256	397	48.4119094358	10.4399838311	Jettingen-Scheppach	89343	Jettingen-Scheppach, Euro Rast	Robert-Bosch-Str. 12	+49 8225 3117	False	True	False	True	True	True	True	None	None	https://www.mcdonalds.de/restaurant/jettingen-scheppach-robert-bosch-str-12	07:00 - 00:00	09:00 - 00:00	07:00 - 00:00	07:00 - 01:00	07:00 - 00:00	07:00 - 01:00	07:00 - 00:00	McDonald's Restaurant	Sylvia Starkmann GmbH
512	680	53.194801373	9.28841015792	Gyhum	27404	Bockel, Aral Autohof (A1)	An der Autobahn 3 (Autobahn A1)	+49 4286 95111	True	True	True	True	True	False	True	None	None	https://www.mcdonalds.de/restaurant/gyhum-an-der-autobahn-3	24h	24h	24h	24h	24h	24h	24h	McDonald's Restaurant	Systemgastronomie U. Breitkopf KG
768	969	49.901191	8.6085118	Weiterstadt	64331	Weiterstadt, Rudolf-Diesel-Str	Rudolf-Diesel-Str. 28	+49 6151 4285937	False	True	False	True	True	True	True	None	None	https://www.mcdonalds.de/restaurant/weiterstadt-rudolf-diesel-str-28	07:00 - 00:00	08:00 - 00:00	07:00 - 00:00	07:00 - 01:00	07:00 - 00:00	07:00 - 01:00	07:00 - 00:00	McDonald's Restaurant	Korkmaz Markengastronomie e.K.
2560	1054	53.7423793966	9.94416871816	Quickborn	25451	Quickborn, Gewerbegebiet Halen	Auf dem Halenberg	+49 4106 773006	False	True	False	True	True	False	True	None	None	https://www.mcdonalds.de/restaurant/quickborn-auf-dem-halenberg	07:00 - 01:00	08:00 - 01:00	07:00 - 01:00	07:00 - 02:00	07:00 - 01:00	07:00 - 02:00	07:00 - 01:00	McDonald's Restaurant	Diane Cichon Systemgastronomie e.K.
2816	1334	49.447264842	11.082351971	Nürnberg	90403	Nürnberg, Hauptbahnhof Königst	Bahnhofsplatz 9	+49 911 2029889	False	False	False	True	True	False	False	None	None	https://www.mcdonalds.de/restaurant/nuernberg-bahnhofsplatz-9	06:00 - 01:00	06:00 - 01:00	06:00 - 01:00	06:00 - 02:00	06:00 - 01:00	06:00 - 02:00	06:00 - 01:00	McDonald's Restaurant	McDonald's Deutschland LLC
3072	1602	48.6828426032	9.00091565095	Böblingen	71034	Böblingen, Karl-Benz-Str.	Karl-Benz-Str. 7	+49 7031 4674501	False	True	False	True	True	True	True	None	None	https://www.mcdonalds.de/restaurant/boeblingen-karl-benz-str-7	06:00 - 01:00	08:00 - 01:00	06:00 - 01:00	06:00 - 00:00	06:00 - 01:00	00:00 - 06:00	06:00 - 01:00	McDonald's Restaurant	McDonald's Deutschland LLC
1	1	48.112949075	11.5760900826	München	81539	München, Martin-Luther-Str.	Martin-Luther-Str. 26	+49 89 69380366	False	False	False	True	True	False	False	None	None	https://www.mcdonalds.de/restaurant/muenchen-martin-luther-str-26	08:00 - 02:00	08:00 - 02:00	08:00 - 02:00	08:00 - 04:00	08:00 - 02:00	08:00 - 04:00	08:00 - 02:00	McDonald's Restaurant	REINERS Gastronomie GmbH & Co. KG
257	398	53.5820531468	9.49969783744	Stade	21680	Stade, Harburger Str.	Harburger Str. 184	+49 4141 600124	False	True	False	True	True	True	True	None	None	https://www.mcdonalds.de/restaurant/stade-harburger-str-184	07:30 - 01:00	07:30 - 01:00	07:30 - 01:00	07:30 - 03:00	07:30 - 01:00	07:30 - 03:00	07:30 - 01:00	McDonald's Restaurant	Betzien Systemgastronomie e.K.
513	681	47.9605360016	8.51321468284	Donaueschingen	78166	Donaueschingen, Carl-Benz-Str.	Carl-Benz-Str. 4	+49 771 1816	False	True	False	True	True	True	False	None	None	https://www.mcdonalds.de/restaurant/donaueschingen-carl-benz-str-4	08:00 - 00:00	09:00 - 00:00	08:00 - 00:00	08:00 - 03:00	08:00 - 00:00	08:00 - 03:00	08:00 - 00:00	McDonald's Restaurant	J. Deitlaff-Systemgastronomie GmbH Donaueschingen
769	971	51.1660726437	6.84608714298	Düsseldorf	40589	Düsseldorf, Am Trippelsberg	Am Trippelsberg 4	+49 211 7100520	False	True	False	True	True	True	True	None	None	https://www.mcdonalds.de/restaurant/duesseldorf-am-trippelsberg-4	07:00 - 01:00	08:00 - 01:00	07:00 - 01:00	07:00 - 03:00	07:00 - 01:00	08:00 - 03:00	07:00 - 01:00	McDonald's Restaurant	BCR Systemgastronomie GmbH
2561	1055	50.5918574417	13.0106228845	Annaberg-Buchholz	09456	Annaberg-Buchholz, Chemnitzer	Chemnitzer Str. 36	+49 3733 542773	False	True	False	True	True	True	False	None	None	https://www.mcdonalds.de/restaurant/annaberg-buchholz-chemnitzer-str-36	07:00 - 00:00	09:00 - 00:00	07:00 - 00:00	07:00 - 01:00	07:00 - 00:00	07:00 - 01:00	07:00 - 00:00	McDonald's Restaurant	Willy Dany Restaurantbetriebsgesellschaft mbH & Co. Service KG
2817	1335	52.4276097438	10.8114168501	Wolfsburg	38446	Wolfsburg, Lerchenweg	Lerchenweg 24	+49 5361 8486772	True	True	True	True	True	True	False	None	None	https://www.mcdonalds.de/restaurant/wolfsburg-lerchenweg-24	24h	24h	24h	24h	24h	24h	24h	McDonald's Restaurant	Bredberg Systemgastronomie GmbH & Co. KG
3073	1603	50.8190891254	8.77463360013	Marburg	35037	Marburg, Hauptbahnhof	Bahnhofstr. 33	+49 6421 5907657	False	False	False	True	True	True	True	None	None	https://www.mcdonalds.de/restaurant/marburg-bahnhofstr-33	08:00 - 23:00	10:00 - 23:00	08:00 - 23:00	08:00 - 23:00	08:00 - 23:00	08:00 - 23:00	08:00 - 23:00	McDonald's Restaurant	Walter Briol Systemgastronomie e.K.
2	5	48.15685745	11.5837017567	München	80802	München, Leopoldstr.	Leopoldstr. 17	+49 89 34029533	False	False	False	True	True	False	False	None	None	https://www.mcdonalds.de/restaurant/muenchen-leopoldstr-17	07:00 - 02:00	07:00 - 02:00	07:00 - 02:00	07:00 - 05:00	07:00 - 02:00	07:00 - 05:00	07:00 - 02:00	McDonald's Restaurant	A + M Systemgastronomie GmbH
258	399	49.984343366	8.4298388745	Rüsselsheim	65428	Rüsselsheim, Adam-Opel-Str.	Adam-Opel-Str. 49	+49 6142 64819	False	True	False	True	True	True	True	None	None	https://www.mcdonalds.de/restaurant/ruesselsheim-adam-opel-str-49	06:00 - 05:00	06:00 - 05:00	06:00 - 05:00	06:00 - 05:00	06:00 - 05:00	06:00 - 05:00	06:00 - 05:00	McDonald's Restaurant	McDonald's Deutschland LLC
514	682	51.1808554105	7.24161326111	Remscheid	42897	Remscheid, Jägerwald 8	Jägerwald 8	+49 2191 99980	False	True	False	True	True	True	True	None	None	https://www.mcdonalds.de/restaurant/remscheid-jaegerwald-8	07:00 - 01:00	07:00 - 01:00	07:00 - 01:00	07:00 - 06:00	07:00 - 01:00	07:00 - 06:00	07:00 - 01:00	McDonald's Restaurant	UWI - Restaurantbetriebe GmbH & Co. KG
770	972	51.9800950628	8.48054612986	Bielefeld	33649	Bielefeld, Im Brocke	Im Brocke 43	+49 521 4178840	True	True	True	True	True	True	True	None	None	https://www.mcdonalds.de/restaurant/bielefeld-im-brocke-43	24h	24h	24h	24h	24h	24h	24h	McDonald's Restaurant	Heiderich GmbH & Co. KG
2562	1056	52.9179271939	12.7847215294	Neuruppin	16816	Neuruppin, Neustädter Str.	Neustädterstr. 27	+49 3391 506331	False	True	False	True	True	True	True	None	None	https://www.mcdonalds.de/restaurant/neuruppin-neustaedterstr-27	07:00 - 24:00	08:00 - 24:00	07:00 - 24:00	07:00 - 02:00	07:00 - 24:00	07:00 - 02:00	07:00 - 24:00	McDonald's Restaurant	McDonald's Deutschland LLC
3074	1604	51.494789	7.371116	Dortmund	44149	Dortmund, Indupark-Center	Wulfshofstr. 6-8	+49 231 6559530	False	False	False	True	True	False	False	None	None	https://www.mcdonalds.de/restaurant/dortmund-wulfshofstr-6-8	10:00 - 21:00	geschlossen	10:00 - 21:00	09:00 - 22:00	10:00 - 21:00	09:00 - 22:00	10:00 - 21:00	McDonald's Restaurant	Axel Kirsch Systemgastronomie e.K.
3	6	48.1610996297	11.5632145274	München	80797	München, Hohenzollernstr.	Hohenzollernstr. 152	+49 89 307778666	False	False	False	True	True	False	False	None	None	https://www.mcdonalds.de/restaurant/muenchen-hohenzollernstr-152	08:00 - 01:00	08:00 - 01:00	08:00 - 02:00	08:00 - 04:00	08:00 - 01:00	08:00 - 04:00	08:00 - 01:00	McDonald's Restaurant	A + M Systemgastronomie GmbH
259	401	51.8320622	12.2432144	Dessau	06844	Dessau, Kavalierstr.	Kavalierstr. 71	+49 340 2209666	False	False	False	True	True	True	False	None	None	https://www.mcdonalds.de/restaurant/dessau-kavalierstr-71	08:00 - 23:00	09:00 - 23:00	08:00 - 23:00	08:00 - 01:00	08:00 - 23:00	08:00 - 01:00	08:00 - 23:00	McDonald's Restaurant	S&D Systemgastronomie e.K.
515	683	49.444021846	11.8307322147	Amberg	92224	Amberg, Fuggerstr.	Fuggerstr. 22	+49 9621 470203	False	True	False	True	True	True	True	None	None	https://www.mcdonalds.de/restaurant/amberg-fuggerstr-22	06:00 - 05:00	06:00 - 05:00	06:00 - 05:00	06:00 - 05:00	06:00 - 05:00	06:00 - 05:00	06:00 - 05:00	McDonald's Restaurant	McDonald's Deutschland LLC
771	973	51.0601970998	8.77951604672	Frankenberg	35066	Frankenberg, Ruhrstr.	Ruhrstr. 17	+49 6451 714954	False	True	False	True	True	True	True	None	None	https://www.mcdonalds.de/restaurant/frankenberg-ruhrstr-17	07:00 - 00:00	08:00 - 00:00	07:00 - 00:00	07:00 - 03:00	07:00 - 00:00	07:00 - 05:00	07:00 - 00:00	McDonald's Restaurant	Ralf Kassens Systemgastronomie
2563	1057	47.9082504969	7.59295613102	Hartheim	79258	Hartheim Rastanlage Bremgarten	Rastanlage Bremgarten 2	+49 7633 934553	False	True	False	True	True	True	False	None	None	https://www.mcdonalds.de/restaurant/hartheim-rastanlage-bremgarten-2	08:00 - 01:00	08:00 - 01:00	08:00 - 01:00	08:00 - 03:00	08:00 - 01:00	08:00 - 03:00	08:00 - 01:00	McDonald's Restaurant	Dieter Stumpen e.K.
2819	1337	51.6962183332	7.96555851842	Lippetal	59510	Lippetal, Strängenbach	Strängenbach 2	+49 2388 301357	False	True	False	True	True	False	False	None	None	https://www.mcdonalds.de/restaurant/lippetal-straengenbach-2	07:00 - 01:00	08:00 - 01:00	07:00 - 01:00	07:00 - 03:00	07:00 - 01:00	07:00 - 03:00	07:00 - 01:00	McDonald's Restaurant	McDonald's Restaurant Klaus Lawatzki e.K.
3075	1605	50.9161440528	6.71435513986	Kerpen	50169	Kerpen, Bahnhof Horrem	Bahnhofstr. 11	+49 2273 5668904	False	False	False	True	True	False	False	None	None	https://www.mcdonalds.de/restaurant/kerpen-bahnhofstr-11	07:00 - 22:00	11:00 - 22:00	07:00 - 22:00	07:00 - 00:00	07:00 - 22:00	10:00 - 00:00	07:00 - 22:00	McDonald's Restaurant	Shahid Baig Systemgastronomie e.K.
4	7	48.1375372877	11.5633615315	München	80336	München, Schwanthalerstr.	Schwanthalerstr. 8	+49 89 54829373	False	False	False	True	True	False	False	None	None	https://www.mcdonalds.de/restaurant/muenchen-schwanthalerstr-8	08:00 - 01:00	09:00 - 01:00	08:00 - 01:00	08:00 - 02:00	08:00 - 01:00	08:00 - 02:00	08:00 - 01:00	McDonald's Restaurant	Reisert Restaurant GmbH
260	402	47.6756446552	9.15240328808	Konstanz	78467	Konstanz, Opel Str.	Opelstr. 1	+49 7531 68463	False	True	False	True	True	True	True	None	None	https://www.mcdonalds.de/restaurant/konstanz-opelstr-1	07:00 - 01:00	08:00 - 01:00	07:00 - 01:00	07:00 - 05:00	07:00 - 01:00	07:00 - 05:00	07:00 - 01:00	McDonald's Restaurant	Albert Systemgastronomie
516	684	48.2157029635	9.87698465921	Laupheim	88471	Laupheim, Berblinger Str.	Berblingerstr. 28	+49 7392 5940	False	True	False	True	True	True	False	None	None	https://www.mcdonalds.de/restaurant/laupheim-berblingerstr-28	07:00 - 01:00	09:00 - 01:00	07:00 - 01:00	07:00 - 03:00	07:00 - 01:00	07:00 - 03:00	07:00 - 01:00	McDonald's Restaurant	Karrer Systemgastronomie Laupheim e.K.
772	974	49.4426516299	6.62602811901	Merzig	66663	Merzig, Saarwiesenring	Saarwiesenring 2	+49 6861 9399590	False	True	False	True	True	True	False	None	None	https://www.mcdonalds.de/restaurant/merzig-saarwiesenring-2	08:00 - 01:00	06:00 - 01:00	08:00 - 01:00	08:00 - 06:00	08:00 - 01:00	24h	08:00 - 01:00	McDonald's Restaurant	Markus Weber e.K.
2564	1058	53.015927282	7.85238006459	Friesoythe	26169	Friesoythe, Huntestr.	Huntestr. 2	+49 4491 919155	False	True	False	True	True	True	True	None	None	https://www.mcdonalds.de/restaurant/friesoythe-huntestr-2	08:00 - 00:00	08:00 - 00:00	08:00 - 00:00	08:00 - 06:00	08:00 - 00:00	08:00 - 06:00	08:00 - 00:00	McDonald's Restaurant	Burkhard Timme Systemgastronomie e.K.
2820	1338	50.1142064126	8.67557186202	Frankfurt am Main	60313	Frankfurt, Große Bockenheimer	Grosse Bockenheimer Str. 6	+49 69 13384277	False	False	False	True	True	False	False	None	None	https://www.mcdonalds.de/restaurant/frankfurt-am-main-grosse-bockenheimer-str-6	09:00 - 00:00	geschlossen	09:00 - 00:00	09:00 - 00:00	09:00 - 00:00	09:00 - 00:00	09:00 - 00:00	McDonald's Restaurant	SoTor Restaurants Süd GmbH & Co. KG
3076	1606	50.2957882005	8.25276925344	Bad Camberg	65520	Bad Camberg, Beuerbacher Lands	Beuerbacher Landstr. 4a	+49 6434 9080019	False	True	False	True	True	True	True	None	None	https://www.mcdonalds.de/restaurant/bad-camberg-beuerbacher-landstr-4a	09:00 - 00:30	09:00 - 00:30	09:00 - 00:30	09:00 - 01:00	09:00 - 00:30	09:00 - 01:00	09:00 - 00:30	McDonald's Restaurant	SPEEDEE Restaurations-Betriebe GmbH & Co. KG
5	8	48.1303630196	11.5581415537	München	80336	München, Goethestr.	Goethestr. 74	+49 89 54379812	False	False	False	True	True	False	False	None	None	https://www.mcdonalds.de/restaurant/muenchen-goethestr-74	07:00 - 03:00	08:00 - 03:00	07:00 - 03:00	07:00 - 04:00	07:00 - 03:00	07:00 - 04:00	07:00 - 03:00	McDonald's Restaurant	McDonald's Deutschland LLC
261	403	49.625818639	8.36216058965	Worms	67547	Worms, Dr. Otto Röhmstr./Mainz	Dr.-Otto-Röhm-Str. 3	+49 6241 45497	False	True	False	True	True	True	True	None	None	https://www.mcdonalds.de/restaurant/worms-dr-otto-roehm-str-3	08:00 - 01:00	08:00 - 01:00	08:00 - 01:00	08:00 - 03:00	08:00 - 01:00	08:00 - 03:00	08:00 - 01:00	McDonald's Restaurant	Günther Blanke KG
517	685	53.5193646986	12.7130902524	Waren	17192	Waren, Strelitzer Str., B 192	Strelitzerstr. 139	+49 3991 663076	False	True	False	True	True	True	False	None	None	https://www.mcdonalds.de/restaurant/waren-strelitzerstr-139	07:00 - 00:00	07:00 - 00:00	07:00 - 00:00	07:00 - 01:00	07:00 - 00:00	07:00 - 01:00	07:00 - 00:00	McDonald's Restaurant	Norbert Bauszus GmbH
773	975	50.8859765773	7.63635866321	Waldbröl	51545	Waldbröl, Wiehlerstr.	Wiehler Str. 22	+49 2291 807075	False	True	False	True	True	True	True	None	None	https://www.mcdonalds.de/restaurant/waldbroel-wiehler-str-22	08:00 - 01:00	09:00 - 01:00	08:00 - 01:00	08:00 - 03:00	08:00 - 01:00	08:00 - 04:00	08:00 - 01:00	McDonald's Restaurant	M.J. Restaurantbetriebe
2565	1059	49.3436547882	7.17411529267	Neunkirchen	66538	Neunkirchen, Westspange/Boxber	Boxbergweg 1	+49 6821 14188	False	True	False	True	True	True	True	None	None	https://www.mcdonalds.de/restaurant/neunkirchen-boxbergweg-1	07:00 - 01:00	07:00 - 01:00	07:00 - 01:00	07:00 - 03:00	07:00 - 01:00	07:00 - 03:00	07:00 - 01:00	McDonald's Restaurant	Getrey Gastro GmbH & Co. KG
2821	1339	50.132263151	8.91719027371	Hanau	63450	Hanau, Am Markt	Am Markt 5	+49 6181 9065068	False	False	False	True	True	False	False	None	None	https://www.mcdonalds.de/restaurant/hanau-am-markt-5	09:00 - 23:00	10:00 - 23:00	09:00 - 23:00	09:00 - 01:00	09:00 - 23:00	09:00 - 01:00	09:00 - 23:00	McDonald's Restaurant	SYSTRO Restaurant GmbH & Co.KG
3077	1607	48.342692	8.66244	Vöhringen	72189	Vöhringen, Eythstr. 16 A	Eythstr. 14	+49 7454 4071082	False	True	False	True	True	False	True	None	None	https://www.mcdonalds.de/restaurant/voehringen-eythstr-14	07:00 - 01:00	07:00 - 01:00	07:00 - 01:00	07:00 - 01:00	07:00 - 01:00	07:00 - 01:00	07:00 - 01:00	McDonald's Restaurant	Familienrestaurant Karrer e.K.
4101	1719	48.1421847244	11.5506050338	München	80335	München, Zentraler Busbahnhof	Hackerbrücke 4	+49 89 51114838	False	False	False	False	True	False	False	None	None	https://www.mcdonalds.de/restaurant/muenchen-hackerbruecke-4	07:00 - 00:00	07:00 - 00:00	07:00 - 00:00	07:00 - 00:00	07:00 - 00:00	07:00 - 00:00	07:00 - 00:00	McDonald's Restaurant	McDonald's Deutschland LLC
6	9	48.1171161	11.5391166	München	81373	München, Am Harras	Am Harras 12	+49 89 74664791	False	False	False	True	True	False	False	None	None	https://www.mcdonalds.de/restaurant/muenchen-am-harras-12	08:00 - 03:00	08:00 - 03:00	08:00 - 03:00	08:00 - 05:00	08:00 - 03:00	08:00 - 05:00	08:00 - 03:00	McDonald's Restaurant	McDonald's Deutschland LLC
262	404	53.0317755552	8.65441284391	Delmenhorst	27755	Delmenhorst, Hasporter Damm	Hasporter Damm 187	+49 4221 67838	False	True	False	True	True	False	False	None	None	https://www.mcdonalds.de/restaurant/delmenhorst-hasporter-damm-187	07:00 - 00:00	09:00 - 00:00	07:00 - 00:00	07:00 - 02:00	07:00 - 00:00	07:00 - 02:00	07:00 - 00:00	McDonald's Restaurant	Breitkopf GmbH
518	686	54.5307727543	9.57548798241	Schleswig	24837	Schleswig, Schleidörfer Str.	Schleidörferstr. 1a	+49 4621 953380	False	True	False	True	True	True	False	None	None	https://www.mcdonalds.de/restaurant/schleswig-schleidoerferstr-1a	08:00 - 01:00	08:00 - 01:00	08:00 - 01:00	08:00 - 02:00	08:00 - 01:00	08:00 - 02:00	08:00 - 01:00	McDonald's Restaurant	Hans-Dieter Schmidt
774	976	50.77893985	6.2213787	Stolberg	52222	Stolberg, Eisenbahnstr.	Eisenbahnstr. 11	+49 2402 860601	False	True	False	True	True	True	False	None	None	https://www.mcdonalds.de/restaurant/stolberg-eisenbahnstr-11	09:00 - 01:00	09:00 - 01:00	09:00 - 01:00	09:00 - 02:00	09:00 - 01:00	09:00 - 02:00	09:00 - 01:00	McDonald's Restaurant	Fast Food Schröder GmbH & Co. KG
2822	1340	53.0479404014	8.74361135927	Bremen	28259	Bremen, Roland-Center	Alter Dorfweg 30-50	+49 421 5720253	False	False	False	True	True	False	False	None	None	https://www.mcdonalds.de/restaurant/bremen-alter-dorfweg-30-50	10:00 - 20:00	geschlossen	10:00 - 20:00	10:00 - 20:00	10:00 - 20:00	10:00 - 20:00	10:00 - 20:00	McDonald's Restaurant	O.H. Systemgastronomie GmbH
3078	1608	50.7675906495	7.31268518458	Hennef	53773	Hennef, Albert-Nobel-Str.	Alfred-Nobel-Str. 3	+49 2242 8741464	False	True	False	True	True	True	True	None	None	https://www.mcdonalds.de/restaurant/hennef-alfred-nobel-str-3	07:00 - 01:00	08:00 - 01:00	07:00 - 01:00	07:00 - 05:00	07:00 - 01:00	07:00 - 05:00	07:00 - 01:00	McDonald's Restaurant	Hans-Otto Westphal Siegburg-Restaurations GmbH
4102	1720	52.5072568353	13.2796986399	Berlin	14057	Berlin, Zentraler Busbahnhof (	Masurenallee 4-6	+49 30 30100359	False	False	False	False	True	False	False	None	None	https://www.mcdonalds.de/restaurant/berlin-masurenallee-4-6	08:00 - 22:00	09:00 - 23:00	08:00 - 22:00	08:00 - 23:00	08:00 - 22:00	08:00 - 23:00	08:00 - 22:00	McDonald's Restaurant	HAM Systemrestaurant GmbH
263	405	52.4704681112	10.5436701332	Gifhorn	38518	Gifhorn	Braunschweiger Str. 103	+49 5371 15787	False	True	False	True	True	True	True	None	None	https://www.mcdonalds.de/restaurant/gifhorn-braunschweiger-str-103	07:00 - 01:00	09:00 - 01:00	07:00 - 01:00	07:00 - 04:00	07:00 - 01:00	07:00 - 04:00	07:00 - 01:00	McDonald's Restaurant	Dr. Werner Lampe GmbH
519	687	50.998389214	12.4085301018	Lödla	04617	Altenburg, Oberlödla	Lödlaer Chaussee 4b	+49 3447 836077	False	True	False	True	True	True	True	None	None	https://www.mcdonalds.de/restaurant/loedla-loedlaer-chaussee-4b	07:30 - 00:00	09:00 - 00:00	07:30 - 00:00	07:30 - 03:00	07:30 - 00:00	07:30 - 04:00	07:30 - 00:00	McDonald's Restaurant	Gerd Vogel Systemgastronomie
775	977	53.5706377533	10.1438219338	Hamburg	22043	Hamburg, Barsbüttelerstr.	Barsbütteler Str. 45	+49 40 65390014	False	True	False	True	True	True	False	None	None	https://www.mcdonalds.de/restaurant/hamburg-barsbuetteler-str-45	09:00 - 00:00	09:00 - 00:00	09:00 - 00:00	09:00 - 01:00	09:00 - 00:00	09:00 - 01:00	09:00 - 00:00	McDonald's Restaurant	Michael Kaup Systemgastronomie e.K. Barsbütteler Str. 45
2567	1061	52.4696481895	13.3712811171	Berlin	12103	Berlin, Alboinstr.	Alboinstr. 4	+49 30 76008712	True	True	True	True	True	True	True	None	None	https://www.mcdonalds.de/restaurant/berlin-alboinstr-4	24h	24h	24h	24h	24h	24h	24h	McDonald's Restaurant	McDonald's Deutschland LLC
3079	1609	51.10326	6.53131	Jüchen	41363	Jüchen, Neusserstr.	Neusser Str. 204	+49 2165 1709883	False	True	False	True	True	True	True	None	None	https://www.mcdonalds.de/restaurant/juechen-neusser-str-204	07:00 - 01:00	09:00 - 01:00	07:00 - 01:00	07:00 - 05:00	07:00 - 01:00	07:00 - 05:00	07:00 - 01:00	McDonald's Restaurant	CFR Kommanditgesellschaft
4103	1681	53.5047458768	10.0901321195	Hamburg	22113	Hamburg, Amandus-Stubbe-Straße	Amandus-Stubbe-Str. 8	+49 40 41928545	False	True	False	False	True	False	True	None	None	https://www.mcdonalds.de/restaurant/hamburg-amandus-stubbe-str-8	07:00 - 00:00	09:00 - 00:00	07:00 - 00:00	07:00 - 00:00	07:00 - 00:00	07:00 - 00:00	07:00 - 00:00	McDonald's Restaurant	Michael Kaup Systemgastronomie e.K. Amandus-Stubbe-Straße 8
8	12	50.9284368821	6.94217606878	Köln	50674	Köln, Barbarossaplatz	Barbarossaplatz 1	+49 221 212811	False	False	False	True	True	False	True	None	None	https://www.mcdonalds.de/restaurant/koeln-barbarossaplatz-1	06:00 - 05:00	06:00 - 05:00	06:00 - 05:00	06:00 - 05:59	06:00 - 05:00	06:00 - 05:59	06:00 - 05:00	McDonald's Restaurant	McDonald's Deutschland LLC
264	406	51.6928115261	9.98959935807	Northeim	37154	Northeim	Von Menzel Str. 6	+49 5551 66841	False	True	False	True	True	True	False	None	None	https://www.mcdonalds.de/restaurant/northeim-von-menzel-str-6	07:00 - 00:00	09:00 - 00:00	07:00 - 00:00	07:00 - 05:00	07:00 - 00:00	07:00 - 05:00	07:00 - 00:00	McDonald's Restaurant	Restaurantbetriebe Uwe Süshardt
520	688	51.4637023266	11.9073675387	Teutschenthal	06179	Angersdorf, An der Lauchstädte	An der Lauchstädter Str. 5	+49 345 6131922	False	True	False	True	True	True	True	None	None	https://www.mcdonalds.de/restaurant/angersdorf-an-der-lauchstaedter-str-5	07:00 - 01:00	07:00 - 01:00	07:00 - 01:00	07:00 - 01:00	07:00 - 01:00	07:00 - 01:00	07:00 - 01:00	McDonald's Restaurant	Mike Kraft Systemgastronomie e. K.
776	978	51.1614700908	7.00389963341	Solingen	42697	Solingen, Hauptbahnhof	Bahnstr. 26	+49 212 2641880	False	True	False	True	True	True	False	None	None	https://www.mcdonalds.de/restaurant/solingen-bahnstr-26	08:00 - 01:00	09:00 - 01:00	08:00 - 01:00	08:00 - 04:00	08:00 - 01:00	08:00 - 04:00	08:00 - 01:00	McDonald's Restaurant	Wolny Familienrestaurant GmbH
2568	1062	48.5639659141	11.2889180528	Schrobenhausen	86529	Schrobenhausen, Rinderhofer Br	Rinderhofer Breite 3	+49 8252 810370	False	True	False	True	True	True	False	None	None	https://www.mcdonalds.de/restaurant/schrobenhausen-rinderhofer-breite-3	08:00 - 01:00	08:00 - 01:00	08:00 - 01:00	08:00 - 02:00	08:00 - 01:00	08:00 - 02:00	08:00 - 01:00	McDonald's Restaurant	Günter Liebhart
2824	1342	53.0487050185	8.62916548013	Delmenhorst	27749	Delmenhorst, Langestr.	Lange Str. 27	+49 4221 4901363	False	False	False	True	True	False	False	None	None	https://www.mcdonalds.de/restaurant/delmenhorst-lange-str-27	09:00 - 20:00	12:00 - 20:00	09:00 - 20:00	09:00 - 20:00	09:00 - 20:00	09:00 - 20:00	09:00 - 20:00	McDonald's Restaurant	Breitkopf GmbH
3080	1610	52.2657486984	9.07128009167	Bückeburg	31675	Bückeburg, Kreuzbreite	Kreuzbreite 21	+49 5722 2887977	False	True	False	True	True	True	True	None	None	https://www.mcdonalds.de/restaurant/bueckeburg-kreuzbreite-21	08:00 - 01:00	08:00 - 01:00	08:00 - 01:00	08:00 - 01:00	08:00 - 01:00	08:00 - 01:00	08:00 - 01:00	McDonald's Restaurant	Randolf Harms Systemgastronomie GmbH
4104	1712	52.2540265403	10.6543651894	Cremlingen	38162	Cremlingen, Im Moorbusche	Im Moorbusche	+49 5306 9309051	False	True	False	False	True	False	True	None	None	https://www.mcdonalds.de/restaurant/cremlingen-im-moorbusche	07:00 - 00:00	08:00 - 23:00	07:00 - 00:00	07:00 - 02:00	07:00 - 00:00	07:00 - 02:00	07:00 - 00:00	McDonald's Restaurant	Bredberg Kölu GmbH & Co. KG
265	407	49.3088989805	12.0985726629	Schwandorf	92421	Schwandorf	Max-Planck-Str. 10	+49 9431 56302	False	True	False	True	True	True	True	None	None	https://www.mcdonalds.de/restaurant/schwandorf-max-planck-str-10	08:00 - 00:00	08:00 - 00:00	08:00 - 00:00	08:00 - 01:00	08:00 - 00:00	08:00 - 01:00	08:00 - 00:00	McDonald's Restaurant	Systemgastronomie Günther Homm
521	689	50.5142206749	10.7522611128	Schleusingen	98553	Schleusingen, Kurhausstr. 1	Kurhausstr. 1	+49 36841 31620	False	True	False	True	True	True	False	None	None	https://www.mcdonalds.de/restaurant/schleusingen-kurhausstr-1	09:00 - 00:00	09:00 - 00:00	09:00 - 00:00	09:00 - 00:00	09:00 - 00:00	09:00 - 00:00	09:00 - 00:00	McDonald's Restaurant	Uwe Kurth Restaurantbetriebsgesellschaft mbH
777	979	48.8225980279	8.29553413456	Gaggenau	76571	Gaggenau, Murtalstr.	Murgtalstr. 1	+49 7225 985225	False	True	False	True	True	True	False	None	None	https://www.mcdonalds.de/restaurant/gaggenau-murgtalstr-1	08:00 - 01:00	08:00 - 01:00	08:00 - 01:00	08:00 - 04:00	08:00 - 01:00	08:00 - 04:00	08:00 - 01:00	McDonald's Restaurant	McDonald's Restaurant Hans Braun Systemgastronomie "e.K."
2569	1063	47.6645806878	9.57821805655	Tettnang	88069	Tettnang, Dr. Klein Str.	Dr.-Klein-Str. 7	+49 7542 953730	False	True	False	True	True	True	False	None	None	https://www.mcdonalds.de/restaurant/tettnang-dr-klein-str-7	07:00 - 00:00	08:00 - 00:00	07:00 - 00:00	07:00 - 02:00	07:00 - 00:00	07:00 - 02:00	07:00 - 00:00	McDonald's Restaurant	Andreas Fehr Tettnang GmbH & Co. KG
2825	1343	49.0383208515	8.68920400895	Bretten	75015	Bretten, Alexanderstr.	Alexanderstr. 1	+49 7252 504794	False	True	False	True	True	True	False	None	None	https://www.mcdonalds.de/restaurant/bretten-alexanderstr-1	09:00 - 01:00	09:00 - 01:00	09:00 - 01:00	09:00 - 05:00	09:00 - 01:00	09:00 - 05:00	09:00 - 01:00	McDonald's Restaurant	Leander Schnell Bretten KG
3081	1611	51.0650810687	13.8954143666	Dresden	01328	Dresden-Weissig, Prießnitzaue	An der Prießnitzaue 1a	+49 351 21760196	False	True	False	True	True	True	True	None	None	https://www.mcdonalds.de/restaurant/dresden-an-der-priessnitzaue-1a	09:00 - 23:00	09:00 - 23:00	09:00 - 23:00	09:00 - 00:00	09:00 - 23:00	09:00 - 00:00	09:00 - 23:00	McDonald's Restaurant	Willy Dany Restaurantbetriebsgesellschaft mbH & Co. Service KG
4105	1718	50.8988432762	14.7843405907	Zittau	02763	Zittau, Äußere Weberstraße	Äußere Weberstraße 83	+49 3583 5156801	False	True	False	False	True	False	False	None	None	https://www.mcdonalds.de/restaurant/zittau-aeussere-weberstrasse-83	07:00 - 00:00	09:00 - 00:00	07:00 - 00:00	07:00 - 01:00	07:00 - 00:00	07:00 - 01:00	07:00 - 00:00	McDonald's Restaurant	Willy Dany Restaurantbetriebsgesellschaft mbH & Co. Service KG
10	17	48.128205	11.6005604	München	81667	München, Weissenburger Str.	Weissenburger Str. 36	+49 89 44718801	False	False	False	True	True	False	False	None	None	https://www.mcdonalds.de/restaurant/muenchen-weissenburger-str-36	08:00 - 01:00	09:00 - 01:00	08:00 - 01:00	08:00 - 03:00	08:00 - 01:00	08:00 - 03:00	08:00 - 01:00	McDonald's Restaurant	McDonald's Deutschland LLC
266	408	48.7470971602	11.4667823274	Ingolstadt	85053	Ingolstadt, Eriagstr.	Eriagstr. 1	+49 841 940142	False	True	False	True	True	True	True	None	None	https://www.mcdonalds.de/restaurant/ingolstadt-eriagstr-1	07:00 - 01:00	09:00 - 01:00	07:00 - 02:00	07:00 - 04:00	07:00 - 01:00	07:00 - 04:00	07:00 - 01:00	McDonald's Restaurant	Prinz von Hessen Restaurant-Gastronomie KG
522	691	53.6083068521	10.1900960887	Hamburg	22143	Hamburg, Sieker Landstr.	Sieker Landstr. 126	+49 40 6779502	False	True	False	True	True	True	True	None	None	https://www.mcdonalds.de/restaurant/hamburg-sieker-landstr-126	07:00 - 01:00	08:00 - 01:00	07:00 - 01:00	07:00 - 03:00	07:00 - 01:00	07:00 - 03:00	07:00 - 01:00	McDonald's Restaurant	Michael Kaup Systemgastronomie GmbH
778	981	51.1473936322	8.03232416563	Lennestadt	57368	Lennestadt, Elsperstraße	Elsper Str. 42	+49 2721 200133	False	True	False	True	True	False	False	None	None	https://www.mcdonalds.de/restaurant/lennestadt-elsper-str-42	08:00 - 00:00	08:00 - 00:00	08:00 - 00:00	08:00 - 03:00	08:00 - 00:00	08:00 - 03:00	08:00 - 00:00	McDonald's Restaurant	M.D.M. Vogler KG
2570	1064	51.976579	9.27799495859	Bad Pyrmont	31812	Bad Pyrmont, Siemensstr.	Siemensstr. 2	+49 5281 969720	False	True	False	True	True	True	False	None	None	https://www.mcdonalds.de/restaurant/bad-pyrmont-siemensstr-2	09:00 - 00:00	09:00 - 00:00	09:00 - 00:00	09:00 - 03:00	09:00 - 00:00	09:00 - 03:00	09:00 - 00:00	McDonald's Restaurant	Systemgastronomie Bad Pyrmont Maike Neuenroth e. K.
2826	1344	50.536818927	8.53729903835	Wetzlar	35578	Wetzlar, Hörnsheimer Eck (Real	Hörnsheimer Eck 2-4	+49 6441 8970107	False	False	False	True	True	False	False	None	None	https://www.mcdonalds.de/restaurant/wetzlar-hoernsheimer-eck-2-4	10:00 - 22:00	11:00 - 21:00	10:00 - 22:00	10:00 - 22:00	10:00 - 22:00	11:00 - 21:00	10:00 - 22:00	McDonald's Restaurant	Stark Restaurant GmbH & Co. KG
3082	1612	48.536779	9.285013	Metzingen	72555	Metzingen, Ulmerstr. 15	Ulmer Str. 15	+49 7123 9102480	False	True	False	True	True	False	True	None	None	https://www.mcdonalds.de/restaurant/metzingen-ulmer-str-15	08:00 - 01:00	09:00 - 01:00	08:00 - 01:00	08:00 - 03:00	08:00 - 01:00	07:00 - 03:00	08:00 - 01:00	McDonald's Restaurant	Sapper Gastronomiebetriebe e.K.
11	19	48.1491790845	11.5628266963	München	80333	München, Augustenstr.	Augustenstr. 53	+49 89 54212820	False	False	False	True	True	False	False	None	None	https://www.mcdonalds.de/restaurant/muenchen-augustenstr-53	10:00 - 01:00	10:00 - 01:00	10:00 - 01:00	10:00 - 03:00	10:00 - 01:00	10:00 - 03:00	10:00 - 01:00	McDonald's Restaurant	Reisert Restaurant GmbH
267	409	52.2626671619	8.07078126339	Osnabrück	49084	Osnabrück, Hannoversche Str.	Hannoversche Str. 45	+49 541 571133	True	True	True	True	True	True	True	None	None	https://www.mcdonalds.de/restaurant/osnabrueck-hannoversche-str-45	24h	24h	24h	24h	24h	24h	24h	McDonald's Restaurant	Systemgastronomie Christian Eckstein GmbH & Co. KG
523	692	51.2172908	6.8233553	Düsseldorf	40231	Düsseldorf, Königsbergerstr.	Königsberger Str. 23	+49 211 7370491	False	True	False	True	True	True	False	None	None	https://www.mcdonalds.de/restaurant/duesseldorf-koenigsberger-str-23	07:00 - 02:00	07:00 - 02:00	07:00 - 02:00	24h	07:00 - 02:00	24h	07:00 - 02:00	McDonald's Restaurant	GT. Fischer Familienrestaurant e.K.
779	982	47.7658189583	11.3589589609	Penzberg	82377	Penzberg, Seeshaupterstr.	Seeshaupterstr. 56	+49 8856 803613	False	True	False	True	True	True	True	None	None	https://www.mcdonalds.de/restaurant/penzberg-seeshaupterstr-56	07:00 - 00:00	07:00 - 00:00	07:00 - 00:00	07:00 - 01:00	07:00 - 00:00	07:00 - 01:00	07:00 - 00:00	McDonald's Restaurant	Heinritzi GmbH & Co. Restaurant KG
2571	1065	53.5427848903	10.0269079871	Hamburg	20097	Hamburg, Amsinckstr/Grüner Dei	Amsinckstr. 73	+49 40 23686926	False	True	False	True	True	True	False	None	None	https://www.mcdonalds.de/restaurant/hamburg-amsinckstr-73	07:00 - 01:00	09:00 - 01:00	07:00 - 01:00	07:00 - 03:00	07:00 - 01:00	07:00 - 03:00	07:00 - 01:00	McDonald's Restaurant	Amend Restaurantbetrieb Amsinckstraße GmbH & Co. KG
2827	1345	51.0272067532	7.01500321291	Leverkusen	51377	Leverkusen, Stixchesstr. (Real	Stixchesstr. 123 (Real)	+49 214 2027497	False	False	False	True	True	False	False	None	None	https://www.mcdonalds.de/restaurant/leverkusen-stixchesstr-123-real	07:00 - 22:00	geschlossen	07:00 - 22:00	07:00 - 22:00	07:00 - 22:00	07:00 - 22:00	07:00 - 22:00	McDonald's Restaurant	Team H.M. GmbH & Co. KG
3083	1613	52.4696045457	13.4421830082	Berlin	12055	Berlin, S-Bahnhof Neukölln	Saalestr. 83	+49 30 63227978	False	False	False	True	True	False	False	None	None	https://www.mcdonalds.de/restaurant/berlin-saalestr-83	11:00 - 01:00	11:00 - 01:00	11:00 - 01:00	11:00 - 03:00	11:00 - 01:00	11:00 - 03:00	11:00 - 01:00	McDonald's Restaurant	MaKS 1 Food GmbH
12	20	51.1941588687	6.43601013908	Mönchengladbach	41061	Mönchengladbach, Hindenburg	Hindenburgstr. 65	+49 2161 182222	False	False	False	True	True	False	True	None	None	https://www.mcdonalds.de/restaurant/moenchengladbach-hindenburgstr-65	09:00 - 22:00	10:00 - 09:00	09:00 - 22:00	08:00 - 02:00	09:00 - 22:00	08:00 - 02:00	09:00 - 22:00	McDonald's Restaurant	Refro KG
268	410	52.3333275453	9.41378949621	Barsinghausen	30890	Barsinghausen, Truckstop (A2)	Kronskamp 1	+49 5105 514353	True	True	True	True	True	True	True	None	None	https://www.mcdonalds.de/restaurant/barsinghausen-kronskamp-1	24h	24h	24h	24h	24h	24h	24h	McDonald's Restaurant	McDonald's Deutschland LLC
524	693	50.1162626896	7.60005118861	Pfalzfeld	56291	Pfalzfeld, A 61	In der Scheib	+49 6746 9693	False	True	False	True	True	True	True	None	None	https://www.mcdonalds.de/restaurant/pfalzfeld-in-der-scheib	07:00 - 00:00	08:00 - 00:00	07:00 - 00:00	07:00 - 01:00	07:00 - 00:00	07:00 - 01:00	07:00 - 00:00	McDonald's Restaurant	Michael Gollor
780	983	49.5505040689	8.45034664989	Mannheim	68307	Mannheim, Viernheimer Weg	Viernheimer Weg 23	+49 621 7897672	False	True	False	True	True	True	True	None	None	https://www.mcdonalds.de/restaurant/mannheim-viernheimer-weg-23	07:00 - 02:00	09:00 - 02:00	07:00 - 02:00	07:00 - 05:00	07:00 - 02:00	07:00 - 05:00	07:00 - 02:00	McDonald's Restaurant	B. Kalhorifar Systemgastronomie e.K.
2572	1066	47.8286481926	11.9031853843	Irschenberg	83737	Irschenberg, Wendling	Wendling 13	+49 8025 997390	True	True	True	True	True	True	True	None	None	https://www.mcdonalds.de/restaurant/irschenberg-wendling-13	24h	24h	24h	24h	24h	24h	24h	McDonald's Restaurant	Heinritzi GmbH & Co. Restaurant KG
2828	1346	53.0656927614	8.77051506402	Bremen	28259	Bremen, Duckwitzstr. (Real;)	Duckwitzstr. 55 (Real)	+49 421 2441345	False	False	False	True	True	False	False	None	None	https://www.mcdonalds.de/restaurant/bremen-duckwitzstr-55-real	09:00 - 21:00	geschlossen	09:00 - 21:00	09:00 - 21:00	09:00 - 21:00	09:00 - 21:00	09:00 - 21:00	McDonald's Restaurant	BOH Bremen Gastro e.K.
3084	1614	47.813401208	9.63596042161	Weingarten	88250	Weingarten, Argonnenstr.	Argonnenstr. 13	+49 751 56012836	False	True	False	True	True	True	True	None	None	https://www.mcdonalds.de/restaurant/weingarten-argonnenstr-13	07:00 - 01:00	08:00 - 01:00	07:00 - 01:00	07:00 - 03:00	07:00 - 01:00	07:00 - 03:00	07:00 - 01:00	McDonald's Restaurant	Andreas Fehr KG
13	21	48.1397885029	11.5028318165	München	80687	München, Fürstenrieder Str.	Fürstenrieder Str. 26	+49 89 5468260	False	False	False	True	True	False	False	None	None	https://www.mcdonalds.de/restaurant/muenchen-fuerstenrieder-str-26	07:00 - 02:00	07:00 - 02:00	07:00 - 03:00	07:00 - 03:00	07:00 - 02:00	07:00 - 03:00	07:00 - 02:00	McDonald's Restaurant	Firma Sabine Weber-Reisert Betriebsverpachtung
269	411	47.576297339	7.79635299395	Rheinfelden	79618	Rheinfelden, Grossmattstr.	Grossmattstr. 2	+49 7623 7416502	False	True	False	True	True	False	True	None	None	https://www.mcdonalds.de/restaurant/rheinfelden-grossmattstr-2	08:00 - 00:00	09:00 - 00:00	08:00 - 00:00	08:00 - 02:00	08:00 - 00:00	08:00 - 02:00	08:00 - 00:00	McDonald's Restaurant	Thomas Sieberer Familien Restaurant KG
525	694	50.5655401627	7.52687927438	Willroth	56594	Willroth, Raiffeisenstr. 17 A	Raiffeisenstr. 17a	+49 2687 929299	False	True	False	True	True	True	True	None	None	https://www.mcdonalds.de/restaurant/willroth-raiffeisenstr-17a	09:00 - 00:30	09:00 - 00:30	09:00 - 00:30	09:00 - 03:00	09:00 - 00:30	09:00 - 03:00	09:00 - 00:30	McDonald's Restaurant	Modo KG
781	984	49.2855958314	6.78490524521	Bous	66359	Bous, Saarbrückerstr.	Saarbrücker Str. 213	+49 6834 770003	False	True	False	True	True	True	True	None	None	https://www.mcdonalds.de/restaurant/bous-saarbruecker-str-213	07:00 - 01:00	09:00 - 01:00	07:00 - 01:00	07:00 - 04:00	07:00 - 01:00	07:00 - 04:00	07:00 - 01:00	McDonald's Restaurant	Stotzem Food Service GmbH
2573	1070	49.6223894897	9.66803025864	Tauberbischofsheim	97941	Tauberbischofsheim, Mergenthei	Mergentheimer Straße 8	+49 9341 600812	False	True	False	True	True	True	False	None	None	https://www.mcdonalds.de/restaurant/tauberbischofsheim-mergentheimer-strasse-8	09:00 - 00:00	09:00 - 00:00	09:00 - 00:00	09:00 - 01:00	09:00 - 00:00	09:00 - 01:00	09:00 - 00:00	McDonald's Restaurant	Peter Bohnet Restaurantbetriebe e.K.
2829	1347	51.569193708	7.6735537195	Kamen	59174	Kamen, Kamen Karree	Kamen Karree 7	+49 2307 279190	False	True	False	True	True	False	True	None	None	https://www.mcdonalds.de/restaurant/kamen-kamen-karree-7	07:00 - 03:00	07:00 - 03:00	07:00 - 06:00	06:00 - 08:00	07:00 - 03:00	08:00 - 07:00	07:00 - 03:00	McDonald's Restaurant	Kirsch Ost KG
3085	1615	48.0438667959	10.6223322574	Türkheim	86842	Türkheim, Schützenstr.	Schützenstr. 2	+49 8245 9049738	False	True	False	True	True	False	True	None	None	https://www.mcdonalds.de/restaurant/tuerkheim-schuetzenstr-2	08:00 - 00:00	08:00 - 00:00	08:00 - 00:00	08:00 - 02:00	08:00 - 00:00	09:00 - 02:00	08:00 - 00:00	McDonald's Restaurant	Kielhorn Ungerhausen KG
270	412	49.3386881197	8.15984811348	Neustadt an der Weinstraße	67433	Neustadt, Chemnitzer Str.	Chemnitzer Str. 50	+49 6321 12200	False	True	False	True	True	True	True	None	None	https://www.mcdonalds.de/restaurant/neustadt-ad-weinstrasse-chemnitzer-str-50	07:00 - 01:00	08:00 - 01:00	07:00 - 01:00	07:00 - 02:00	07:00 - 01:00	07:00 - 02:00	07:00 - 01:00	McDonald's Restaurant	Mathew Westerhorstmann
526	695	50.8899727107	11.8722170556	Hermsdorf	07629	Hermsdorf, Holzland Autohof (A	Kraftsdorfer Str. 1	+49 36601 80099	False	True	False	True	True	True	True	None	None	https://www.mcdonalds.de/restaurant/hermsdorf-kraftsdorfer-str-1	07:00 - 23:00	09:00 - 23:00	07:00 - 23:00	07:00 - 01:00	07:00 - 23:00	07:00 - 00:00	07:00 - 23:00	McDonald's Restaurant	Willy Dany Restaurantbetriebsgesellschaft mbH & Co. Service KG
782	985	53.0117881438	8.70224846131	Stuhr	28816	Stuhr, Am Schwarzen Moor	Am Schwarzen Moor 3	+49 4206 298892	False	True	False	True	True	True	True	None	None	https://www.mcdonalds.de/restaurant/stuhr-am-schwarzen-moor-3	07:00 - 00:00	08:00 - 00:00	07:00 - 00:00	07:00 - 01:00	07:00 - 00:00	07:00 - 01:00	07:00 - 00:00	McDonald's Restaurant	O.H. Systemgastronomie GmbH
2574	1071	50.9429071596	7.29737203854	Overath	51491	Overath, Burghof	Burghof 4	+49 2206 866978	False	True	False	True	True	True	True	None	None	https://www.mcdonalds.de/restaurant/overath-burghof-4	07:00 - 02:00	08:00 - 02:00	07:00 - 02:00	07:00 - 05:00	07:00 - 02:00	07:00 - 05:00	07:00 - 02:00	McDonald's Restaurant	TGW Systemgastronomie GmbH
2830	1348	49.0108073904	12.1011688948	Regensburg	93053	Regensburg, Regensburg Arcaden	Friedenstr. 23 (Regensburg Arcaden)	+49 941 5676809	False	False	False	True	True	False	False	None	None	https://www.mcdonalds.de/restaurant/regensburg-friedenstr-23-regensburg-arcaden	09:00 - 21:00	10:00 - 21:00	09:00 - 21:00	09:00 - 00:00	09:00 - 21:00	09:00 - 00:00	09:00 - 21:00	McDonald's Restaurant	Frank Mosher Restaurants e.K.
3086	1616	48.406978284	10.9525981741	Friedberg	86316	Derching, Mühlhauser Str.	Winterbruckenweg 55	+49 821 602854	False	True	False	True	True	True	True	None	None	https://www.mcdonalds.de/restaurant/friedberg-winterbruckenweg-55	06:00 - 01:00	06:00 - 01:00	06:00 - 01:00	06:00 - 05:00	06:00 - 01:00	06:00 - 05:00	06:00 - 01:00	McDonald's Restaurant	Hendrikx Jun. Systemgastronomie e.K.
15	23	51.2189674956	6.78402056946	Düsseldorf	40210	Düsseldorf, Graf-Adolf-Str.	Graf-Adolf-Str. 56	+49 211 356682	True	False	True	True	True	False	True	None	None	https://www.mcdonalds.de/restaurant/duesseldorf-graf-adolf-str-56	24h	24h	24h	24h	24h	24h	24h	McDonald's Restaurant	CFR Kommanditgesellschaft
271	413	49.1427229829	10.0480526107	Crailsheim	74564	Crailsheim	Haller Str. 94	+49 7951 27009	False	True	False	True	True	True	True	None	None	https://www.mcdonalds.de/restaurant/crailsheim-haller-str-94	09:00 - 00:00	09:00 - 00:00	09:00 - 00:00	09:00 - 03:00	09:00 - 00:00	09:00 - 03:00	09:00 - 00:00	McDonald's Restaurant	Systemgastronomie Sven Strohmayer e.K.
527	696	47.8862841395	11.6892579571	Holzkirchen	83607	Holzkirchen, Heingkammerstr. 2	Heignkamerstr. 2	+49 8024 91925	False	True	False	True	True	True	True	None	None	https://www.mcdonalds.de/restaurant/holzkirchen-heignkamerstr-2	08:00 - 01:00	08:00 - 00:00	08:00 - 01:00	08:00 - 02:00	08:00 - 01:00	08:00 - 02:00	08:00 - 01:00	McDonald's Restaurant	Heinritzi GmbH & Co. Restaurant KG
783	986	52.4284447143	9.41670784931	Wunstorf	31515	Wunstorf, An der Nonnenwiese	An der Nonnenwiese 1a	+49 5031 915092	False	True	False	True	True	True	True	None	None	https://www.mcdonalds.de/restaurant/wunstorf-an-der-nonnenwiese-1a	07:00 - 01:00	07:00 - 01:00	07:00 - 01:00	07:00 - 06:59	07:00 - 01:00	07:00 - 06:59	07:00 - 01:00	McDonald's Restaurant	Restaurantbetriebe Wunstorf Günter Ehmann GmbH & Co.KG
2575	1072	50.9584809384	6.8004822742	Pulheim	50259	Pulheim, Sachsstr.	Sachsstr. 1	+49 2234 989741	False	True	False	True	True	True	True	None	None	https://www.mcdonalds.de/restaurant/pulheim-sachsstr-1	07:00 - 00:00	09:00 - 00:00	07:00 - 00:00	07:00 - 02:00	07:00 - 00:00	07:00 - 02:00	07:00 - 00:00	McDonald's Restaurant	Shahid Baig Systemgastronomie e.K.
2831	1349	50.1573013962	8.63246894503	Frankfurt am Main	60439	Frankfurt, Nordwestzentrum	Limescorso 33 (Nordwestzentrum)	+49 69 95102274	False	False	False	True	True	False	False	None	None	https://www.mcdonalds.de/restaurant/frankfurt-am-main-limescorso-33-nordwestzentrum	08:00 - 22:00	08:00 - 22:00	08:00 - 22:00	08:00 - 22:00	08:00 - 22:00	08:00 - 22:00	08:00 - 22:00	McDonald's Restaurant	SoTor Restaurants Nord GmbH & Co. KG
3087	1619	52.3745072006	9.73869478558	Hannover	30159	Hannover, Niki-De-Saint-Phalle	Niki-de-Saint-Phalle-Promenade 6 (U-Bahnhof)	+49 511 35374620	False	False	False	True	True	False	False	None	None	https://www.mcdonalds.de/restaurant/hannover-niki-de-saint-phalle-promenade-6-u-bahnhof	07:00 - 21:30	11:00 - 18:00	07:00 - 21:30	07:00 - 21:30	07:00 - 21:30	07:00 - 21:30	07:00 - 21:30	McDonald's Restaurant	McDonald's Deutschland LLC
16	26	50.9367561652	6.93990968725	Köln	50674	Köln, Rudolfplatz	Rudolfplatz 8-10	+49 221 2573211	False	False	False	True	True	False	True	None	None	https://www.mcdonalds.de/restaurant/koeln-rudolfplatz-8-10	07:00 - 06:00	07:00 - 06:00	07:00 - 06:00	07:00 - 06:00	07:00 - 06:00	07:00 - 06:00	07:00 - 06:00	McDonald's Restaurant	McDonald's Deutschland LLC
272	414	51.83673894	7.285279819	Dülmen	48249	Dülmen, Münster	Münsterstr. 111	+49 2594 87048	False	True	False	True	True	False	True	None	None	https://www.mcdonalds.de/restaurant/duelmen-muensterstr-111	07:00 - 02:00	07:00 - 02:00	07:00 - 02:00	07:00 - 05:00	07:00 - 02:00	07:00 - 05:00	07:00 - 02:00	McDonald's Restaurant	Herda Restaurant KG
528	697	53.8484868855	10.6775638506	Lübeck	23560	Lübeck, Geniner Str. 133 - 135	Hinter den Kirschkaten 2	+49 451 7064918	False	True	False	True	True	True	False	None	None	https://www.mcdonalds.de/restaurant/luebeck-hinter-den-kirschkaten-2	08:00 - 00:00	09:00 - 00:00	08:00 - 00:00	08:00 - 01:00	08:00 - 00:00	08:00 - 01:00	08:00 - 00:00	McDonald's Restaurant	Systemgastronomie Kurt Neubaumer e.K.
784	987	52.5270256601	13.2333881117	Berlin	13597	Berlin, Charlottenburger Chaus	Charlottenburger Chaussee 49	+49 30 30810444	False	True	False	True	True	True	True	None	None	https://www.mcdonalds.de/restaurant/berlin-charlottenburger-chaussee-49	08:00 - 00:00	09:00 - 00:00	08:00 - 00:00	08:00 - 00:00	08:00 - 00:00	08:00 - 00:00	08:00 - 00:00	McDonald's Restaurant	SW Systemgastronomie Ch. Chaussee e.K.
2576	1073	48.0652608524	11.5531219581	Grünwald	82031	Grünwald, Bavaria Filmstadt	Bavariafilmplatz 7	+49 89 64943805	False	False	False	True	True	True	False	None	None	https://www.mcdonalds.de/restaurant/gruenwald-bavariafilmplatz-7	09:30 - 18:00	09:30 - 18:00	09:30 - 18:00	09:30 - 18:00	09:30 - 18:00	09:30 - 18:00	09:30 - 18:00	McDonald's Restaurant	Heinritzi GmbH & Co. Restaurant KG
2832	1350	50.9177924078	9.20615597573	Schwalmstadt	34613	Schwalmstadt, Friedrich-Ebert-	Friedrich-Ebert-Str. 112	+49 6691 911077	False	False	False	True	True	False	False	None	None	https://www.mcdonalds.de/restaurant/schwalmstadt-friedrich-ebert-str-112	08:00 - 24:00	09:00 - 24:00	08:00 - 24:00	08:00 - 03:00	08:00 - 24:00	08:00 - 03:00	08:00 - 24:00	McDonald's Restaurant	Marc Sachse Erlebnisgastronomie e.K.
3088	1620	53.6927038183	10.3205338097	Todendorf	22965	Todendorf, Raststätte Buddikat	an der BAB 1 Buddikate West	+49 4534 2049623	True	False	True	True	True	False	True	None	None	https://www.mcdonalds.de/restaurant/todendorf-an-der-bab-1-buddikate-west	24h	24h	24h	24h	24h	24h	24h	McDonald's Restaurant	Michael Kaup Systemgastronomie e.K. Poehlswiese-Buddikate West A1
17	27	50.9419108645	6.95617857801	Köln	50667	Köln, Marzellenstr.	Marzellenstr. 2-8	+49 221 136667	False	False	False	True	True	False	False	None	None	https://www.mcdonalds.de/restaurant/koeln-marzellenstr-2-8	07:00 - 01:00	07:00 - 01:00	07:00 - 01:00	07:00 - 06:00	07:00 - 01:00	07:00 - 06:00	07:00 - 01:00	McDonald's Restaurant	McDonald's Deutschland LLC
273	415	50.9083254701	12.0661252336	Gera	07546	Gera, Siemensstr.	Siemensstr. 55	+49 365 412135	False	True	False	True	True	True	False	None	None	https://www.mcdonalds.de/restaurant/gera-siemensstr-55	07:00 - 00:00	08:00 - 00:00	07:00 - 00:00	07:00 - 01:00	07:00 - 00:00	07:00 - 01:00	07:00 - 00:00	McDonald's Restaurant	Willy Dany Restaurantbetriebsgesellschaft mbH & Co. Service KG
529	698	51.2020159	9.46834475956	Guxhagen	34302	Guxhagen, Bab 7	Robert-Bosch-Str. 13	+49 5665 921212	True	True	True	True	True	True	True	None	None	https://www.mcdonalds.de/restaurant/guxhagen-robert-bosch-str-13	24h	24h	24h	24h	24h	24h	24h	McDonald's Restaurant	Marc Sachse Systemgastronomie e.K.
785	988	53.580488672	7.9070146527	Jever	26441	Jever, Am Bullhamm	Am Bullhamm 1a	+49 4461 912724	False	True	False	True	True	True	False	None	None	https://www.mcdonalds.de/restaurant/jever-am-bullhamm-1a	08:00 - 01:00	08:00 - 01:00	08:00 - 01:00	08:00 - 02:00	08:00 - 01:00	08:00 - 02:00	08:00 - 01:00	McDonald's Restaurant	Matthias Lau Systemgastronomie Jever GmbH & Co. KG
2577	1074	50.7630697941	6.97712735841	Bornheim	53332	Bornheim, Am Hellenkreuz	Am Hellenkreuz 2	+49 2222 648607	False	True	False	True	True	True	False	None	None	https://www.mcdonalds.de/restaurant/bornheim-am-hellenkreuz-2	09:00 - 00:00	09:00 - 00:00	09:00 - 00:00	09:00 - 01:00	09:00 - 00:00	09:00 - 01:00	09:00 - 00:00	McDonald's Restaurant	Hahne Systemgastronomie GmbH
2833	1351	53.5578210547	13.2570744437	Neubrandenburg	17033	Neubrandenburg, Marktplatz-Cen	Kraemerstr. 1a	+49 395 5638391	False	False	False	True	True	False	False	None	None	https://www.mcdonalds.de/restaurant/neubrandenburg-kraemerstr-1a	09:30 - 20:00	geschlossen	09:30 - 20:00	10:00 - 20:00	09:30 - 20:00	10:00 - 20:00	09:30 - 20:00	McDonald's Restaurant	Systemgastronomie Barnim GmbH
3089	1621	53.5189921249	8.11778590507	Wilhelmshaven	26382	Wilhelmshaven, Bahnhof	Bahnhofstr. 10	+49 4421 7479670	False	False	False	True	True	False	False	None	None	https://www.mcdonalds.de/restaurant/wilhelmshaven-bahnhofstr-10	07:00 - 21:00	10:00 - 21:00	07:00 - 21:00	07:00 - 21:00	07:00 - 21:00	07:00 - 21:00	07:00 - 21:00	McDonald's Restaurant	Matthias Lau Systemgastronomie Wilhelmshaven GmbH & Co. KG
18	28	49.5960739922	11.004180648	Erlangen	91054	Erlangen, Hugenottenplatz	Hugenottenplatz 1	+49 9131 27477	False	False	False	True	True	True	False	None	None	https://www.mcdonalds.de/restaurant/erlangen-hugenottenplatz-1	09:00 - 00:00	09:30 - 00:00	09:00 - 01:00	09:00 - 02:00	09:00 - 00:00	09:00 - 02:00	09:00 - 00:00	McDonald's Restaurant	Markensystemgastronomie BR e. Kfm.
274	416	51.5227137475	6.34615777186	Geldern	47608	Geldern, Weseler Str.	Weseler Str. 121	+49 2831 94920	False	True	False	True	True	True	False	None	None	https://www.mcdonalds.de/restaurant/geldern-weseler-str-121	07:00 - 01:00	06:00 - 01:00	07:00 - 01:00	07:00 - 02:00	07:00 - 01:00	07:00 - 06:00	07:00 - 01:00	McDonald's Restaurant	Josef Deutskens e.K.
530	699	48.0240518055	7.58512848492	Breisach am Rhein	79206	Breisach, Alte Zollanlage	Zur Rheinbrücke 23	+49 7667 940500	False	True	False	True	True	True	False	None	None	https://www.mcdonalds.de/restaurant/breisach-am-rhein-zur-rheinbruecke-23	09:00 - 00:00	09:00 - 00:00	09:00 - 00:00	09:00 - 02:00	09:00 - 00:00	09:00 - 02:00	09:00 - 00:00	McDonald's Restaurant	Dieter Stumpen e.K.
786	989	51.616257896	7.52771636209	Lünen	44534	Lünen, Engelswiese/Busbahnhof	Engelswiese 4	+49 2306 966515	False	True	False	True	True	True	False	None	None	https://www.mcdonalds.de/restaurant/luenen-engelswiese-4	08:00 - 01:00	09:00 - 01:00	08:00 - 01:00	08:00 - 05:00	08:00 - 01:00	08:00 - 05:00	08:00 - 01:00	McDonald's Restaurant	Phillip Scheider Systemgastronomie
2578	1075	48.5566245982	13.4184336476	Passau	94036	Passau, Meranerstr.	Meraner Str. 2	+49 851 4903973	False	True	False	True	True	True	True	None	None	https://www.mcdonalds.de/restaurant/passau-meraner-str-2	08:00 - 01:00	08:00 - 00:00	08:00 - 01:00	08:00 - 02:30	08:00 - 01:00	08:00 - 02:30	08:00 - 01:00	McDonald's Restaurant	C.G. Froschmeier e.K. Niederlassung Passau
2834	1352	51.4303323885	6.88649861448	Mülheim an der Ruhr	45468	Mülheim A.D. Ruhr, Hauptbahnho	Am Hauptbahnhof 8	+49 208 3018211	False	False	False	True	True	False	False	None	None	https://www.mcdonalds.de/restaurant/muelheim-ad-ruhr-am-hauptbahnhof-8	07:00 - 23:30	10:00 - 23:30	07:00 - 23:30	07:00 - 23:30	07:00 - 23:30	07:00 - 23:30	07:00 - 23:30	McDonald's Restaurant	Marcus Prünte Restaurantbetriebsgesellschaft mbH
3090	1622	50.047807345	8.562305471	Frankfurt am Main	60549	Frankfurt, Flughafen - T1 A Pl	Terminal 1, Abflug Z	+49 69 69538948	False	False	False	True	True	True	True	None	None	https://www.mcdonalds.de/restaurant/frankfurt-am-main-terminal-1-abflug-z	06:00 - 22:00	06:00 - 22:00	06:00 - 22:00	06:00 - 22:00	06:00 - 22:00	06:00 - 22:00	06:00 - 22:00	McDonald's Restaurant	McDonald's Deutschland LLC
19	30	53.572865819	10.0685653172	Hamburg	22041	Hamburg, Wandsbeker Marktplatz	Wandsbeker Marktstr. 109	+49 40 6524729	False	False	False	True	True	True	False	None	None	https://www.mcdonalds.de/restaurant/hamburg-wandsbeker-marktstr-109	09:00 - 00:30	09:00 - 00:30	09:00 - 00:30	09:00 - 02:00	09:00 - 00:30	09:00 - 02:00	09:00 - 00:30	McDonald's Restaurant	Amend Restaurantbetrieb Wandsbeker Marktstraße GmbH & Co. KG
275	417	49.3291661368	7.3204424918	Homburg	66424	Homburg/Saar	Zum Lappentascher Hof 18	+49 6841 756986	False	True	False	True	True	True	True	None	None	https://www.mcdonalds.de/restaurant/homburg-zum-lappentascher-hof-18	07:00 - 01:00	07:00 - 01:00	07:00 - 01:00	07:00 - 04:00	07:00 - 01:00	07:00 - 04:00	07:00 - 01:00	McDonald's Restaurant	Getrey Gastro GmbH & Co. KG
531	700	52.6009190533	13.515618342	Ahrensfelde (OT Lindenberg)	16356	Lindenberg, Karl Marxstr.	Karl-Marx-Str. 50	+49 30 9413798	False	True	False	True	True	False	True	None	None	https://www.mcdonalds.de/restaurant/ahrensfelde-ot-lindenberg-karl-marx-str-50	08:00 - 00:00	08:00 - 00:00	08:00 - 00:00	07:00 - 01:00	08:00 - 00:00	07:00 - 01:00	08:00 - 00:00	McDonald's Restaurant	ATR Systemgastronomie GmbH
787	991	52.6012529202	10.107233363	Celle	29227	Celle, Siedemeierkamp	Siedemeierkamp 3	+49 5141 6682	False	True	False	True	True	True	True	None	None	https://www.mcdonalds.de/restaurant/celle-siedemeierkamp-3	08:00 - 01:00	09:00 - 01:00	08:00 - 01:00	08:00 - 03:00	08:00 - 01:00	08:00 - 03:00	08:00 - 01:00	McDonald's Restaurant	Dr. Lampe GmbH
2579	1076	48.8658371545	8.22301142201	Rastatt	76437	Rastatt, Ettlinger Str.	Ettlinger Str.3	+49 7222 156172	False	True	False	True	True	True	True	None	None	https://www.mcdonalds.de/restaurant/rastatt-ettlinger-str3	08:00 - 01:00	08:00 - 01:00	08:00 - 01:00	08:00 - 04:00	08:00 - 01:00	08:00 - 04:00	08:00 - 01:00	McDonald's Restaurant	Braun Systemgastronomie GmbH
2835	1354	51.2788549921	7.02033844583	Wülfrath	42489	Wülfrath, Zur Fliethe (Real;)	Zur Fliethe 8	+49 2058 775583	False	False	False	True	True	False	False	None	None	https://www.mcdonalds.de/restaurant/wuelfrath-zur-fliethe-8	10:00 - 22:00	geschlossen	10:00 - 22:00	10:00 - 22:00	10:00 - 22:00	10:00 - 22:00	10:00 - 22:00	McDonald's Restaurant	Marcus Prünte Systemgastronomie
3091	1623	51.4686992312	7.27037474879	Bochum	44803	Bochum, Alte Wittenerstr.	Alte Wittener Str. 38	+49 234 29831861	False	True	False	True	True	True	True	None	None	https://www.mcdonalds.de/restaurant/bochum-alte-wittener-str-38	07:00 - 01:00	09:00 - 01:00	07:00 - 01:00	07:00 - 03:00	07:00 - 01:00	07:00 - 03:00	07:00 - 01:00	McDonald's Restaurant	UK Systemgastronomie GmbH
20	34	51.2267285413	6.77629523454	Düsseldorf	40213	Düsseldorf, Neustr.	Neustr. 16	+49 211 326882	False	False	False	True	True	False	False	None	None	https://www.mcdonalds.de/restaurant/duesseldorf-neustr-16	07:00 - 01:00	09:00 - 01:00	07:00 - 01:00	07:00 - 06:00	07:00 - 01:00	09:00 - 06:00	07:00 - 01:00	McDonald's Restaurant	Restaurantbetrieb Thomas Fischer GmbH
276	418	50.87764675	11.620736305	Jena	07747	Jena, Amsterdamerstr.	Amsterdamerstr. 2	+49 3641 336700	False	True	False	True	True	True	True	None	None	https://www.mcdonalds.de/restaurant/jena-amsterdamerstr-2	06:00 - 01:00	06:00 - 01:00	06:00 - 01:00	06:00 - 05:00	06:00 - 01:00	06:00 - 05:00	06:00 - 01:00	McDonald's Restaurant	Werner Systemgastronomie Jena GmbH
532	701	51.5517570202	7.07651912635	Gelsenkirchen	45891	Gelsenkirchen, Adenauer Allee	Adenauerallee 126a	+49 209 71001	False	True	False	True	True	False	False	None	None	https://www.mcdonalds.de/restaurant/gelsenkirchen-adenauerallee-126a	08:00 - 01:00	08:00 - 01:00	08:00 - 01:00	08:00 - 04:00	08:00 - 01:00	07:00 - 04:00	08:00 - 01:00	McDonald's Restaurant	CE Systemgastronomie OHG
788	992	52.5842352007	13.2862131216	Berlin	13507	Berlin, Hallen Am Borsigturm	Am Borsigturm 2 (Hallen am Borsigturm)	+49 30 43407936	False	False	False	True	True	True	True	None	None	https://www.mcdonalds.de/restaurant/berlin-am-borsigturm-2-hallen-a-borsigturm	08:00 - 23:00	09:00 - 23:00	08:00 - 23:00	08:00 - 00:00	08:00 - 23:00	08:00 - 00:00	08:00 - 23:00	McDonald's Restaurant	SH Systemgastronomie Am Borsigturm e. K.
2580	1077	50.1158463082	8.92903865262	Hanau	63457	Hanau, Rodgaustr.	Rodgaustr. 7	+49 6181 9065066	False	True	False	True	True	True	False	None	None	https://www.mcdonalds.de/restaurant/hanau-rodgaustr-7	08:00 - 02:00	09:00 - 02:00	08:00 - 02:00	08:00 - 03:00	08:00 - 02:00	08:00 - 03:00	08:00 - 02:00	McDonald's Restaurant	SYSTRO Restaurant GmbH & Co.KG
2836	1355	49.4852656408	8.44292033693	Ludwigshafen am Rhein	67059	Ludwigshafen, Rathaus-Center	Rathausplatz 20	+49 621 5290496	False	False	False	True	True	False	False	None	None	https://www.mcdonalds.de/restaurant/ludwigshafen-am-rhein-rathausplatz-20	08:00 - 21:00	geschlossen	08:00 - 21:00	08:00 - 21:00	08:00 - 21:00	08:00 - 21:00	08:00 - 21:00	McDonald's Restaurant	Steinbacher Systemgastronomie e.K.
3092	1624	53.628712	11.411196	Schwerin	19053	Schwerin, Marienplatz-Galerie	Marienplatz 11-12	+49 385 52194808	False	False	False	True	True	False	False	None	None	https://www.mcdonalds.de/restaurant/schwerin-marienplatz-11-12	07:00 - 20:00	geschlossen	07:00 - 20:00	07:00 - 20:00	07:00 - 20:00	07:00 - 20:00	07:00 - 20:00	McDonald's Restaurant	Joachim Fietz
21	35	50.3573437242	7.59257283238	Koblenz am Rhein	56068	Koblenz, Schlosstr.	Schlossstr. 46-48	+49 261 38870	False	False	False	True	True	True	True	None	None	https://www.mcdonalds.de/restaurant/koblenz-am-rhein-schlossstr-46-48	09:00 - 01:00	10:00 - 01:00	09:00 - 01:00	09:00 - 05:00	09:00 - 01:00	09:00 - 05:00	09:00 - 01:00	McDonald's Restaurant	Froitzheim GmbH
277	420	47.736161633	10.328598446	Kempten	87437	Kempten, Bleicher Str.	Bleicherstr. 2	+49 831 76329	False	True	False	True	True	True	True	None	None	https://www.mcdonalds.de/restaurant/kempten-bleicherstr-2	07:00 - 01:00	08:00 - 01:00	07:00 - 01:00	07:00 - 01:00	07:00 - 01:00	07:00 - 02:00	07:00 - 01:00	McDonald's Restaurant	Systemgastronomie Anton Beer Kempten e.K.
533	702	50.8051572174	6.15379997427	Würselen	52146	Wuerselen, Adenauerstr.	Adenauerstr. 21	+49 2405 419555	False	True	False	True	True	True	True	None	None	https://www.mcdonalds.de/restaurant/wuerselen-adenauerstr-21	07:00 - 02:00	09:00 - 02:00	07:00 - 02:00	07:00 - 04:00	07:00 - 02:00	07:00 - 04:00	07:00 - 02:00	McDonald's Restaurant	Fast Food Schröder GmbH & Co. KG
789	993	51.474014206	6.85335561228	Oberhausen	46045	Oberhausen, Hauptbahnhof	Willy-Brandt-Platz (Hauptbahnhof)	+49 208 200877	False	False	False	True	True	False	False	None	None	https://www.mcdonalds.de/restaurant/oberhausen-willy-brandt-platz-hauptbahnhof	07:00 - 01:00	07:00 - 01:00	07:00 - 01:00	24h	07:00 - 01:00	24h	07:00 - 01:00	McDonald's Restaurant	OHM GmbH
2581	1078	48.6969841874	9.6859852	Eislingen	73054	Eislingen, Daimlerstr.	Daimlerstr. 6	+49 7161 987776	False	True	False	True	True	True	True	None	None	https://www.mcdonalds.de/restaurant/eislingen-daimlerstr-6	07:00 - 01:00	09:00 - 01:00	07:00 - 01:00	07:00 - 03:00	07:00 - 01:00	07:00 - 03:00	07:00 - 01:00	McDonald's Restaurant	Sapper Gastronomiebetriebe e.K.
2837	1356	47.6131056893	7.66189032703	Lörrach	79539	Lörrach, Chesterplatz 2-4	Chesterplatz 3	+49 7621 1612654	False	False	False	True	True	False	False	None	None	https://www.mcdonalds.de/restaurant/loerrach-chesterplatz-3	10:00 - 20:00	12:00 - 18:00	10:00 - 20:00	10:00 - 21:00	10:00 - 20:00	10:00 - 21:00	10:00 - 20:00	McDonald's Restaurant	Sieberer Restaurant KG
3093	1625	51.5035365364	7.10781023065	Gelsenkirchen	45886	Gelsenkirchen, Wickingstraße 3	Wickingstr. 41	+49 209 38966848	False	True	False	True	True	False	True	None	None	https://www.mcdonalds.de/restaurant/gelsenkirchen-wickingstr-41	08:00 - 01:00	09:00 - 01:00	08:00 - 01:00	08:00 - 03:00	08:00 - 01:00	08:00 - 03:00	08:00 - 01:00	McDonald's Restaurant	Everts Systemgastronomie KG
22	40	53.2471346739	10.4086352161	Lüneburg	21335	Lüneburg, Am Sande	Am Sande 3	+49 4131 732881	False	False	False	True	True	True	False	None	None	https://www.mcdonalds.de/restaurant/lueneburg-am-sande-3	09:00 - 22:00	11:00 - 22:00	09:00 - 22:00	09:00 - 00:00	09:00 - 22:00	09:00 - 00:00	09:00 - 22:00	McDonald's Restaurant	Lüneburger Restaurantbetrieb GmbH & Co. KG
278	421	51.5643714204	8.08748708577	Soest	59494	Soest, Werler Landstr.	Werler Landstr. 4	+49 2921 63330	False	True	False	True	True	True	True	None	None	https://www.mcdonalds.de/restaurant/soest-werler-landstr-4	07:00 - 01:00	07:00 - 01:00	07:00 - 01:00	24h	07:00 - 01:00	24h	07:00 - 01:00	McDonald's Restaurant	Peter Kauke Restaurantbetriebe
534	704	48.544698659	8.7286811701	Nagold	72202	Nagold, Haiterbacherstr.	Haiterbacher Str. 68	+49 7452 1029	False	True	False	True	True	True	False	None	None	https://www.mcdonalds.de/restaurant/nagold-haiterbacher-str-68	07:00 - 01:00	09:00 - 01:00	07:00 - 01:00	07:00 - 03:00	07:00 - 01:00	07:00 - 03:00	07:00 - 01:00	McDonald's Restaurant	ash Systemgastronomie GmbH
790	994	52.506492143	13.306335561	Berlin	10627	Berlin, Kantstr.	Kantstr. 111a	+49 30 32701930	True	False	True	True	True	True	True	None	None	https://www.mcdonalds.de/restaurant/berlin-kantstr-111a	24h	24h	24h	24h	24h	24h	24h	McDonald's Restaurant	Systemgastronomie S. Warweitzki Kantstraße e.K.
2582	1079	52.5095094559	13.4349292459	Berlin	10243	Berlin, Ostbahnhof	Am Ostbahnhof 9	+49 30 29364913	False	False	False	True	True	False	True	None	None	https://www.mcdonalds.de/restaurant/berlin-am-ostbahnhof-9	07:00 - 01:00	07:00 - 01:00	07:00 - 01:00	07:00 - 06:59	07:00 - 01:00	07:00 - 06:59	07:00 - 01:00	McDonald's Restaurant	mib Systemgastronomiegesellschaft m.b.H. & Co. Ostbahnhof KG
2838	1357	52.2761000026	8.04488317689	Osnabrück	49074	Osnabrück, Nikolaiort 1-2	Nikolaiort 1-2	+49 541 7606666	False	False	False	True	True	False	False	None	None	https://www.mcdonalds.de/restaurant/osnabrueck-nikolaiort-1-2	08:00 - 00:00	10:00 - 00:00	08:00 - 00:00	08:00 - 03:00	08:00 - 00:00	08:00 - 03:00	08:00 - 00:00	McDonald's Restaurant	Systemgastronomie Christian Eckstein GmbH & Co. KG
3094	1626	52.196508	9.090539	Rinteln	31737	Rinteln, Konrad Adenauer Straß	Konrad-Adenauer-Str. 44	+49 5751 9239122	False	True	False	True	True	True	True	None	None	https://www.mcdonalds.de/restaurant/rinteln-konrad-adenauer-str-44	08:00 - 00:00	08:00 - 00:00	08:00 - 00:00	08:00 - 02:00	08:00 - 00:00	08:00 - 02:00	08:00 - 00:00	McDonald's Restaurant	GWK Rinteln GmbH
23	42	50.9497908128	6.91668293525	Köln	50823	Köln, Ehrenfeldgürtel	Ehrenfeldgürtel 20	+49 221 515241	False	False	False	True	True	True	False	None	None	https://www.mcdonalds.de/restaurant/koeln-ehrenfeldguertel-20	06:00 - 05:00	06:00 - 05:00	06:00 - 05:00	06:00 - 05:00	06:00 - 05:00	06:00 - 05:00	06:00 - 05:00	McDonald's Restaurant	Ekwek Systemgastronomie GmbH
279	424	52.1313486953	11.6370342785	Magdeburg	39104	Magdeburg, Breiter Weg	Breiter Weg 20	+49 391 5616158	False	False	False	True	True	True	True	None	None	https://www.mcdonalds.de/restaurant/magdeburg-breiter-weg-20	07:00 - 01:00	09:00 - 00:00	07:00 - 01:00	07:00 - 01:00	07:00 - 01:00	07:00 - 01:00	07:00 - 01:00	McDonald's Restaurant	Rieke Magdeburg 1 GmbH & Co. KG
535	708	50.9490441902	7.01864583812	Köln	51065	Köln, Frankfurter Str. 236	Frankfurter Str. 236	+49 221 691235	False	True	False	True	True	True	True	None	None	https://www.mcdonalds.de/restaurant/koeln-frankfurter-str-236	08:00 - 03:00	08:00 - 03:00	08:00 - 00:00	24h	08:00 - 03:00	24h	08:00 - 03:00	McDonald's Restaurant	Team H.M. GmbH
791	995	50.7598637283	6.15322195549	Aachen	52078	Aachen, Debyestr.	Debyestr. 39	+49 241 9209594	False	True	False	True	True	True	True	None	None	https://www.mcdonalds.de/restaurant/aachen-debyestr-39	07:00 - 02:00	09:00 - 02:00	07:00 - 02:00	07:00 - 04:00	07:00 - 02:00	07:00 - 04:00	07:00 - 02:00	McDonald's Restaurant	Fast Food Schröder GmbH & Co. KG
2583	1080	52.6745632239	9.68753063794	Buchholz	29690	Buchholz/Aller, An der Autobah	An der Autobahn 2	+49 5071 800497	False	True	False	True	True	False	True	None	None	https://www.mcdonalds.de/restaurant/buchholz-an-der-autobahn-2	07:00 - 00:00	08:00 - 00:00	07:00 - 00:00	07:00 - 01:00	07:00 - 00:00	07:00 - 01:00	07:00 - 00:00	McDonald's Restaurant	Systemgastronomie GmbH & Co. KG Buchholz Aller
2839	1358	50.070812475	8.24408364885	Wiesbaden	65189	Wiesbaden, Hauptbahnhof	Bahnhofsplatz 1	+49 611 2051184	False	False	False	True	True	False	False	None	None	https://www.mcdonalds.de/restaurant/wiesbaden-bahnhofsplatz-1	06:30 - 00:30	08:00 - 00:30	06:30 - 00:30	06:30 - 02:00	06:30 - 00:30	08:00 - 02:00	06:30 - 00:30	McDonald's Restaurant	Hübner Restaurantbetriebe KG
3095	1627	52.3594610114	7.26096933927	Emsbüren	48488	Emsbüren, An der Bab 31	Paxtonstr. 1	+49 5903 9320869	False	True	False	True	True	True	True	None	None	https://www.mcdonalds.de/restaurant/emsbueren-paxtonstr-1	07:00 - 00:00	07:00 - 00:00	07:00 - 00:00	07:00 - 03:00	07:00 - 00:00	07:00 - 03:00	07:00 - 00:00	McDonald's Restaurant	Systemgastronomie Christian Eckstein GmbH & Co. KG
24	44	47.9938590866	7.84873960922	Freiburg	79098	Freiburg, Kaiser-Joseph-Str.	Kaiser-Joseph-Str. 252	+49 761 38990814	False	False	False	True	True	False	True	None	None	https://www.mcdonalds.de/restaurant/freiburg-kaiser-joseph-str-252	08:00 - 01:00	09:00 - 00:00	08:00 - 01:00	08:00 - 04:00	08:00 - 01:00	08:00 - 04:00	08:00 - 01:00	McDonald's Restaurant	Sieberer Freiburg KG
280	425	52.4412722204	7.08438556391	Nordhorn	48531	Nordhorn. Lingener Str.	Lingener Str. 103	+49 5921 39772	False	True	False	True	True	True	False	None	None	https://www.mcdonalds.de/restaurant/nordhorn-lingener-str-103	08:00 - 01:00	07:01 - 01:00	08:00 - 01:00	08:00 - 07:00	08:00 - 01:00	07:01 - 07:00	08:00 - 01:00	McDonald's Restaurant	Firma Heidrich Systemgastronomie Nordhorn e.K.
536	709	52.5375263762	13.2188873027	Berlin	13599	Berlin, Juliusturm	Am Juliusturm 40-46	+49 30 35402920	False	True	False	True	True	True	True	None	None	https://www.mcdonalds.de/restaurant/berlin-am-juliusturm-40-46	07:00 - 01:00	07:00 - 01:00	07:00 - 01:00	07:00 - 01:00	07:00 - 01:00	07:00 - 01:00	07:00 - 01:00	McDonald's Restaurant	SW Systemgastronomie Juliusturm e.K.
792	996	51.0530007393	6.21680237026	Hückelhoven	41836	Hückelhoven, Roermonder Str.	Roermonder Str. 20	+49 2433 443437	False	True	False	True	True	True	True	None	None	https://www.mcdonalds.de/restaurant/hueckelhoven-roermonder-str-20	07:00 - 01:00	09:00 - 01:00	07:00 - 01:00	07:00 - 03:00	07:00 - 01:00	07:00 - 03:00	07:00 - 01:00	McDonald's Restaurant	Frank Klingler Familien - Restaurant
2584	1081	51.5106964456	12.3379360976	Delitzsch	04509	Delitzsch, Dr. Helmut Schreyer	Dr.-Helmut-Schreyer-Str. 12	+49 34202 32531	False	True	False	True	True	True	False	None	None	https://www.mcdonalds.de/restaurant/delitzsch-dr-helmut-schreyer-str-12	08:00 - 00:00	09:00 - 00:00	08:00 - 00:00	08:00 - 01:00	08:00 - 00:00	08:00 - 01:00	08:00 - 00:00	McDonald's Restaurant	Baumann-Adam Systemgastronomie e.K.
2840	1359	50.6848486627	7.2751313094	Königswinter	53639	Königswinter, Königswinterer S	Königswinterer Str. 233	+49 2244 873077	False	True	False	True	True	True	True	None	None	https://www.mcdonalds.de/restaurant/koenigswinter-koenigswinterer-str-233	06:00 - 01:00	06:00 - 01:00	06:00 - 00:00	24h	06:00 - 01:00	24h	06:00 - 01:00	McDonald's Restaurant	Hans-Otto Westphal Siegburg-Restaurations GmbH
3096	1628	47.883001	10.24836	Bad Grönenbach	87730	Bad Grönenbach, Weißenbachstr.	Weissenbachstr. 4	+49 8334 9876002	False	True	False	True	True	True	True	None	None	https://www.mcdonalds.de/restaurant/bad-groenenbach-weissenbachstr-4	24h	08:00 - 23:00	08:00 - 23:00	08:00 - 02:00	24h	07:00 - 04:00	24h	McDonald's Restaurant	Jan Kielhorn e.K.
25	45	51.2592442273	7.14744484832	Wuppertal	42103	Wuppertal, Hofkamp	Hofkamp 1-3	+49 202 443929	False	False	False	True	True	False	True	None	None	https://www.mcdonalds.de/restaurant/wuppertal-hofkamp-1-3	10:00 - 01:00	10:00 - 01:00	10:00 - 01:00	10:00 - 03:00	10:00 - 01:00	10:00 - 03:00	10:00 - 01:00	McDonald's Restaurant	Klaus-Peter Frühauf
281	426	52.163014153	10.522048813	Wolfenbüttel	38304	Wolfenbüttel, Gebrüder-Welger-	Gebrüder-Welger-Str. 3	+49 5331 949855	False	True	False	True	True	True	True	None	None	https://www.mcdonalds.de/restaurant/wolfenbuettel-gebrueder-welger-str-3	07:00 - 01:00	08:00 - 01:00	07:00 - 01:00	07:00 - 04:00	07:00 - 01:00	07:00 - 04:00	07:00 - 01:00	McDonald's Restaurant	McDonald's Deutschland LLC
537	711	49.3392147159	8.42884295511	Speyer	67346	Speyer, Wormser Landstr.	Wormser Landstr. 196	+49 6232 640470	False	True	False	True	True	True	True	None	None	https://www.mcdonalds.de/restaurant/speyer-wormser-landstr-196	08:00 - 01:00	08:00 - 01:00	08:00 - 01:00	08:00 - 04:00	08:00 - 01:00	08:00 - 04:00	08:00 - 01:00	McDonald's Restaurant	Manfred Büch good food - fast KG
2585	1082	50.6894128	7.6239241	Altenkirchen	57610	Altenkirchen, Kölnerstr.	Kölner Str. 117	+49 2681 984218	False	True	False	True	True	True	True	None	None	https://www.mcdonalds.de/restaurant/altenkirchen-koelner-str-117	09:00 - 01:00	09:00 - 01:00	09:00 - 01:00	09:00 - 03:00	09:00 - 01:00	09:00 - 03:00	09:00 - 01:00	McDonald's Restaurant	Modo KG
2841	1360	50.006263335	9.2211737499	Hösbach	63768	Hösbach, Industriestr. (Shell)	Industriestr. 1	+49 6021 3713688	False	False	False	True	True	False	False	None	None	https://www.mcdonalds.de/restaurant/hoesbach-industriestr-1	08:00 - 24:00	08:00 - 24:00	08:00 - 24:00	08:00 - 01:00	08:00 - 24:00	08:00 - 01:00	08:00 - 24:00	McDonald's Restaurant	Lemke Systemgastronomie GmbH & Co. KG
3097	1629	51.136957764	7.199517708	Wermelskirchen	42929	Wermelskirchen, Bandwirkerstr.	Bandwirkerstr. 2	+49 2196 8821189	False	True	False	True	True	True	True	None	None	https://www.mcdonalds.de/restaurant/wermelskirchen-bandwirkerstr-2	07:00 - 01:00	09:00 - 01:00	07:00 - 01:00	07:00 - 03:00	07:00 - 01:00	07:00 - 03:00	07:00 - 01:00	McDonald's Restaurant	T.Wilhelm e. K.
5401	1732	48.6902344402	9.19511805603	Stuttgart	70629	Stuttgart Flughafen, Terminal	Flughafen Stuttgart, Terminal 3	+ 49 711 45960490	False	False	False	False	True	False	True	None	None	https://www.mcdonalds.de/restaurant/stuttgart-flughafen-stuttgart-terminal-3	06:00 - 22:30	06:00 - 22:30	06:00 - 22:30	06:00 - 22:30	06:00 - 22:30	06:00 - 22:30	06:00 - 22:30	McDonald's Restaurant	Michael Betzien Systemgastronomie KG
26	47	54.9078489869	8.30144254807	Sylt (Westerland)	25980	Westerland/Sylt, Friedrichstr.	Friedrichstr. 36	+49 4651 927510	False	False	False	True	True	True	False	None	None	https://www.mcdonalds.de/restaurant/sylt-westerland-friedrichstr-36	07:00 - 02:00	07:00 - 02:00	07:00 - 02:00	07:00 - 02:00	07:00 - 02:00	07:00 - 02:00	07:00 - 02:00	McDonald's Restaurant	Eugen Jüchter e.K.
282	427	47.7482724632	11.5653218162	Bad Tölz	83646	Bad Tölz	Demmeljochstr. 54	+49 8041 2033	False	True	False	True	True	True	True	None	None	https://www.mcdonalds.de/restaurant/bad-toelz-demmeljochstr-54	07:00 - 01:00	07:00 - 01:00	07:00 - 01:00	07:00 - 05:00	07:00 - 01:00	07:00 - 05:00	07:00 - 01:00	McDonald's Restaurant	Heinritzi Betriebsgesellschaft mbH
538	712	48.77566	11.3888855753	Ingolstadt	85057	Ingolstadt, Westpark	Am Westpark 10 (Audi-Ring)	+49 841 485877	False	True	False	True	True	True	True	None	None	https://www.mcdonalds.de/restaurant/ingolstadt-am-westpark-10-audi-ring	07:00 - 03:00	07:00 - 01:00	07:00 - 03:00	07:00 - 06:59	07:00 - 03:00	07:00 - 06:59	07:00 - 03:00	McDonald's Restaurant	Prinz von Hessen Gastro GmbH
2586	1083	51.0957074209	6.60795848715	Grevenbroich	41516	Grevenbroich, Grevenbroicherst	An der Zuckerfabrik 2	+49 2181 475874	False	True	False	True	True	True	True	None	None	https://www.mcdonalds.de/restaurant/grevenbroich-an-der-zuckerfabrik-2	07:00 - 02:00	08:00 - 02:00	07:00 - 02:00	07:00 - 05:00	07:00 - 02:00	08:00 - 05:00	07:00 - 02:00	McDonald's Restaurant	CFR Kommanditgesellschaft
2842	1361	51.277515122	6.7652853537	Düsseldorf	40474	Düsseldorf, Flughafen	Terminal-Ring 1, Ankunft C	+49 211 4249934	True	False	True	True	True	True	True	None	None	https://www.mcdonalds.de/restaurant/duesseldorf-terminal-ring-1-ankunft-c	24h	24h	24h	24h	24h	24h	24h	McDonald's Restaurant	McDonald's Deutschland LLC
3098	1630	52.20974	7.199742	Ochtrup	48607	Ochtrup, Foc	Laurenzstr. 51	+49 2553 7204743	False	False	False	True	True	True	True	None	None	https://www.mcdonalds.de/restaurant/ochtrup-laurenzstr-51	09:00 - 00:00	10:30 - 00:00	09:00 - 00:00	09:00 - 01:00	09:00 - 00:00	09:00 - 01:00	09:00 - 00:00	McDonald's Restaurant	Systemgastronomie Christian Eckstein GmbH & Co. KG
5402	1734	48.1242549892	11.7577778667	Feldkirchen	85622	Rastanlage Vaterstetten West (	An der A99 (Raststätte, Vaterstetten West, A99)	+49 8106 3053410	False	False	False	False	True	False	False	None	None	https://www.mcdonalds.de/restaurant/feldkirchen-bundesautobahn-a99-tankrast	07:00 - 00:00	06:00 - 00:00	07:00 - 00:00	06:00 - 00:00	07:00 - 00:00	06:00 - 00:00	07:00 - 00:00	McDonald's Restaurant	Autobahn Tank & Rast QSR GmbH
27	48	53.1426508801	8.21355034145	Oldenburg	26122	Oldenburg, Lange Str.	Lange Str. 7	+49 441 13139	True	False	True	True	True	False	False	None	None	https://www.mcdonalds.de/restaurant/oldenburg-lange-str-7	24h	24h	24h	24h	24h	24h	24h	McDonald's Restaurant	MONTI Systems I GmbH & Co. KG
283	428	47.8527501065	11.1523629544	Weilheim	82362	Weilheim	Münchener Str. 69	+49 881 63080	False	True	False	True	True	True	True	None	None	https://www.mcdonalds.de/restaurant/weilheim-muenchener-str-69	08:00 - 00:00	08:00 - 00:00	08:00 - 00:00	08:00 - 02:00	08:00 - 00:00	08:00 - 02:00	08:00 - 00:00	McDonald's Restaurant	Jan Kielhorn e.K.
539	713	51.2231150672	10.4528734402	Mühlhausen	99974	Mühlhausen, Ammersche Landstr.	Ammersche Landstr. 146	+49 3601 815390	False	True	False	True	True	True	True	None	None	https://www.mcdonalds.de/restaurant/muehlhausen-ammersche-landstr-146	07:00 - 01:00	07:00 - 01:00	07:00 - 00:00	24h	07:00 - 01:00	24h	07:00 - 01:00	McDonald's Restaurant	Petra Hebig GmbH & Co. KG
2587	1084	48.3373089368	7.86215453645	Lahr	77933	Lahr, Alte Stadtbahnhof	Alter Stadtbahnhof 1	+49 7821 990626	False	True	False	True	True	True	False	None	None	https://www.mcdonalds.de/restaurant/lahr-alter-stadtbahnhof-1	09:00 - 01:00	09:00 - 01:00	09:00 - 01:00	09:00 - 03:00	09:00 - 01:00	09:00 - 03:00	09:00 - 01:00	McDonald's Restaurant	Leroy Systemgastronomie GmbH & Co KG
2843	1362	53.572630542	10.0684531356	Hamburg	22041	Hamburg, U-Bahnhof Wandsbek Ma	Wandsbeker Marktplatz (U-Bahnhof)	+49 40 65729877	False	False	False	True	True	False	False	None	None	https://www.mcdonalds.de/restaurant/hamburg-wandsbeker-marktplatz	08:00 - 23:00	09:00 - 23:00	08:00 - 23:00	08:00 - 00:00	08:00 - 23:00	08:00 - 00:00	08:00 - 23:00	McDonald's Restaurant	Amend Restaurantbetrieb Wandsbeker Marktstraße GmbH & Co. KG
3099	1631	48.722169231	9.129651318	Stuttgart	70565	Stuttgart-Möhringen, Handwerks	Handwerkstr. 2	+49 711 78241964	False	True	False	True	True	True	True	None	None	https://www.mcdonalds.de/restaurant/stuttgart-handwerkstr-2	08:00 - 01:00	09:00 - 01:00	08:00 - 01:00	08:00 - 03:00	08:00 - 01:00	08:00 - 03:00	08:00 - 01:00	McDonald's Restaurant	Jakob Faltermeier Stuttgart KG
28	50	51.43230079	6.77091719208	Duisburg	47051	Duisburg, Königstr.	Königstr. 58	+49 203 20840	False	False	False	True	True	False	True	None	None	https://www.mcdonalds.de/restaurant/duisburg-koenigstr-58	09:00 - 22:30	09:00 - 22:30	09:00 - 22:30	09:00 - 00:00	09:00 - 22:30	09:00 - 00:00	09:00 - 22:30	McDonald's Restaurant	MTS Systemgastronomie GmbH
284	429	49.6994239	11.0648191109	Forchheim	91301	Forchheim, Daimler	Daimler Str. 24	+49 9191 89097	False	True	False	True	True	True	True	None	None	https://www.mcdonalds.de/restaurant/forchheim-daimler-str-24	06:00 - 05:00	06:00 - 05:00	06:00 - 05:00	06:00 - 05:00	06:00 - 05:00	06:00 - 05:00	06:00 - 05:00	McDonald's Restaurant	Ernst Oude Hengel Forchheim e.K.
540	714	51.1880952354	11.9886709923	Weißenfels	06667	Weißenfels, Käthe-Kollwitz-Str	Käthe-Kollwitz-Str.	+49 3443 302464	False	True	False	True	True	True	True	None	None	https://www.mcdonalds.de/restaurant/weissenfels-kaethe-kollwitz-str	07:00 - 00:00	07:00 - 00:00	07:00 - 00:00	07:00 - 02:00	07:00 - 00:00	07:00 - 02:00	07:00 - 00:00	McDonald's Restaurant	Systemgastronomie Saaletal GmbH
2588	1085	50.5433167436	9.67553598542	Fulda	36043	Fulda, Frankfurterstr.	Frankfurter Str. 8a	+49 661 9019612	False	True	False	True	True	True	True	None	None	https://www.mcdonalds.de/restaurant/fulda-frankfurter-str-8a	08:00 - 01:00	09:00 - 01:00	08:00 - 01:00	08:00 - 05:00	08:00 - 01:00	08:00 - 05:00	08:00 - 01:00	McDonald's Restaurant	Gluth Systemgastronomie e.K.
2844	1363	49.9696476142	8.22959268301	Mainz am Rhein	55128	Mainz-Bretzenheim, Haifa-Allee	Haifa-Allee 4	+49 6131 3330670	False	True	False	True	True	False	True	None	None	https://www.mcdonalds.de/restaurant/mainz-am-rhein-haifa-allee-4	08:00 - 24:00	08:00 - 24:00	08:00 - 24:00	08:00 - 01:00	08:00 - 24:00	08:00 - 01:00	08:00 - 24:00	McDonald's Restaurant	VDB Restaurant GmbH & Co. KG
3100	1632	52.3057076285	8.12438586173	Belm	49191	Belm, Bremer Straße 75	Bremer Str. 75	+49 5406 8060438	True	True	True	True	True	True	True	None	None	https://www.mcdonalds.de/restaurant/belm-bremer-str-75	24h	24h	24h	24h	24h	24h	24h	McDonald's Restaurant	Systemgastronomie Christian Eckstein GmbH & Co. KG
285	430	51.654677108	7.8389667083	Hamm	59069	Hamm, Werler Str.	Werler Str. 313	+49 2381 52062	False	True	False	True	True	False	True	None	None	https://www.mcdonalds.de/restaurant/hamm-werler-str-313	07:00 - 02:00	07:00 - 02:00	07:00 - 02:00	07:00 - 05:00	07:00 - 02:00	07:00 - 05:00	07:00 - 02:00	McDonald's Restaurant	Ton Systemgastronomie e.K.
541	715	50.0491189951	8.22032031252	Wiesbaden	65203	Wiesbaden, Hagenauerstr.	Hagenauer Str. 41	+49 611 1820730	False	True	False	True	True	True	True	None	None	https://www.mcdonalds.de/restaurant/wiesbaden-hagenauer-str-41	07:00 - 00:00	08:00 - 00:00	07:00 - 00:00	07:00 - 01:00	07:00 - 00:00	07:00 - 01:00	07:00 - 00:00	McDonald's Restaurant	Gier GmbH & Co. KG
2589	1086	51.5459368934	7.4599999141	Dortmund	44339	Dortmund, Evingerstr.	Evinger Str. 154	+49 231 2251416	True	True	True	True	True	True	False	None	None	https://www.mcdonalds.de/restaurant/dortmund-evinger-str-154	24h	24h	24h	24h	24h	24h	24h	McDonald's Restaurant	Kirsch GmbH & Co.KG
2845	1365	51.5110893999	6.93515619909	Bottrop	46242	Bottrop, Essener Str. (Südring	Am Südring-Center 1	+49 2041 29600	True	True	True	True	True	True	False	None	None	https://www.mcdonalds.de/restaurant/bottrop	24h	24h	24h	24h	24h	24h	24h	McDonald's Restaurant	Dr. Thilo auf´m Kamp Systemgastronomie e.K.
3101	1633	51.343455	12.374798	Leipzig	04109	Leipzig, Höfe Am Brühl	Brühl 1	+49 341 22540039	False	False	False	True	True	False	True	None	None	https://www.mcdonalds.de/restaurant/leipzig-bruehl-1	07:30 - 22:30	10:30 - 21:00	07:30 - 22:30	07:30 - 01:00	07:30 - 22:30	07:30 - 01:00	07:30 - 22:30	McDonald's Restaurant	Stefan Timme Familiengastronomie e.K.
30	52	48.1526700316	11.5348568125	München	80634	München, Nymphenb. Str.	Nymphenburger Str. 156	+49 89 13986110	False	False	False	True	True	False	True	None	None	https://www.mcdonalds.de/restaurant/muenchen-nymphenburger-str-156	07:00 - 02:00	07:00 - 02:00	07:00 - 03:00	07:00 - 03:00	07:00 - 02:00	07:00 - 03:00	07:00 - 02:00	McDonald's Restaurant	Firma Sabine Weber-Reisert Betriebsverpachtung
286	431	52.197748147	8.56731884425	Bünde	32257	Bünde, Blankensteiner	Blankensteinstr. 44	+49 5223 14130	True	True	True	True	True	True	True	None	None	https://www.mcdonalds.de/restaurant/buende-blankensteinstr-44	24h	24h	24h	24h	24h	24h	24h	McDonald's Restaurant	Systemgastronomie Christian Eckstein GmbH & Co. KG
542	716	51.5172224127	10.2403865715	Duderstadt	37115	Duderstadt, Brandenburgerstr.	Brandenburger Str. 1	+49 5527 941523	False	True	False	True	True	True	False	None	None	https://www.mcdonalds.de/restaurant/duderstadt-brandenburger-str-1	08:00 - 00:00	08:00 - 00:00	08:00 - 00:00	08:00 - 02:00	08:00 - 00:00	08:00 - 03:00	08:00 - 00:00	McDonald's Restaurant	Restaurantbetriebe Uwe Süshardt
2590	1087	50.5980054304	8.82202675963	Reiskirchen	35447	Reiskirchen, Carl-Benz-Str.	Carl-Benz-Str. 2	+49 6408 968815	False	True	False	True	True	False	False	None	None	https://www.mcdonalds.de/restaurant/reiskirchen-carl-benz-str-2	07:00 - 00:00	09:00 - 00:00	07:00 - 00:00	07:00 - 02:00	07:00 - 00:00	07:00 - 03:00	07:00 - 00:00	McDonald's Restaurant	Stark Gastronomie GmbH & Co. KG
2846	1366	50.65792891	6.7916508906	Euskirchen	53879	Euskirchen, Bahnhof	Oststr. 2a (Bahnhof)	+49 2251 777648	False	False	False	False	True	False	False	None	None	https://www.mcdonalds.de/restaurant/euskirchen-oststr-2a-bahnhof	06:00 - 23:00	10:00 - 22:00	06:00 - 23:00	06:00 - 00:00	06:00 - 23:00	06:00 - 00:00	06:00 - 23:00	McDonald's Restaurant	McDonald's Deutschland LLC
3102	1634	51.2120419746	6.13477226326	Niederkrüchten	41372	Niederkrüchten, Nollesweg	Nollesweg 2	+49 2163 4990554	False	True	False	True	True	True	True	None	None	https://www.mcdonalds.de/restaurant/niederkruechten-nollesweg-2	08:00 - 01:00	08:00 - 01:00	08:00 - 01:00	08:00 - 02:00	08:00 - 01:00	08:00 - 02:00	08:00 - 01:00	McDonald's Restaurant	Refro KG
31	53	49.4439767878	7.77001951276	Kaiserslautern	67655	Kaiserslautern, Marktstr.	Marktstr. 40	+49 631 891891	False	False	False	True	True	False	True	None	None	https://www.mcdonalds.de/restaurant/kaiserslautern-marktstr-40	07:00 - 23:00	08:00 - 23:00	07:00 - 23:00	07:00 - 01:00	07:00 - 23:00	07:00 - 01:00	07:00 - 23:00	McDonald's Restaurant	SIKO 2 Koch e.K.
287	432	48.6912794541	10.1668067231	Heidenheim an der Brenz	89520	Heidenheim	Nördlinger Str. 74	+49 7321 21290	False	True	False	True	True	True	True	None	None	https://www.mcdonalds.de/restaurant/heidenheim-ad-brenz-noerdlinger-str-74	07:00 - 01:00	08:00 - 01:00	07:00 - 01:00	07:00 - 03:00	07:00 - 01:00	07:00 - 03:00	07:00 - 01:00	McDonald's Restaurant	Gerhard Schmid
543	717	52.5043337281	13.6234395224	Berlin	12623	Berlin, Alt-Mahlsdorf	Alt-Mahlsdorf 60	+49 30 56701170	False	True	False	True	True	True	True	None	None	https://www.mcdonalds.de/restaurant/berlin-alt-mahlsdorf-60	07:00 - 01:00	07:00 - 01:00	07:00 - 01:00	07:00 - 02:00	07:00 - 01:00	07:00 - 02:00	07:00 - 01:00	McDonald's Restaurant	A. Schlodder Systemgastronomie B1
2591	1088	49.248776421	7.35090121892	Zweibrücken	66482	Zweibrücken, Gottlieb-Daimler-	Gottlieb-Daimler-Str. 32-38	+49 6332 485625	False	True	False	True	True	True	False	None	None	https://www.mcdonalds.de/restaurant/zweibruecken-gottlieb-daimler-str-32-38	07:00 - 01:00	06:00 - 01:00	07:00 - 01:00	07:00 - 03:00	07:00 - 01:00	07:00 - 03:00	07:00 - 01:00	McDonald's Restaurant	Harald Getrey Foodservice Restaurants e.K.
2847	1367	50.7192822	12.4946247	Zwickau	08056	Zwickau, Zwickau Arcaden	Innere Plauensche Str. 14 (Zwickau Arcaden)	+49 375 2702937	False	False	False	True	True	False	False	None	None	https://www.mcdonalds.de/restaurant/zwickau-innere-plauensche-str-14-zwickau-arcaden	09:30 - 20:00	geschlossen	09:30 - 20:00	09:30 - 20:00	09:30 - 20:00	09:30 - 20:00	09:30 - 20:00	McDonald's Restaurant	Klink Gastro GmbH & Co. KG
3103	1635	51.91073113	7.398846802	Nottuln	48301	Nottuln, Gewerbegebiet Beisenb	Beisenbusch 1	+49 2509 9936933	False	True	False	True	True	True	True	None	None	https://www.mcdonalds.de/restaurant/nottuln-beisenbusch-1	06:00 - 01:00	08:00 - 01:00	06:00 - 01:00	06:00 - 03:00	06:00 - 01:00	06:00 - 03:00	06:00 - 01:00	McDonald's Restaurant	B. Jansen Systemgastronomie
32	54	49.4082864989	8.69276405198	Heidelberg	69115	Heidelberg, Rohrbacher Str.	Rohrbacher Str. 3	+49 6221 21200	False	False	False	True	True	False	True	None	None	https://www.mcdonalds.de/restaurant/heidelberg-rohrbacher-str-3	07:00 - 01:00	09:00 - 01:00	07:00 - 02:00	07:00 - 05:00	07:00 - 01:00	07:00 - 05:00	07:00 - 01:00	McDonald's Restaurant	Heck HD Rohrbach KG
288	433	54.1333589062	12.0637335288	Rostock	18109	Rostock, Lütten-Klein	An der Stadtautobahn 39	+49 381 7699200	False	True	False	True	True	True	True	None	None	https://www.mcdonalds.de/restaurant/rostock-an-der-stadtautobahn-39	07:00 - 01:00	07:00 - 01:00	07:00 - 01:00	07:00 - 04:00	07:00 - 01:00	07:00 - 04:00	07:00 - 01:00	McDonald's Restaurant	Wellmann Lütten-Klein GmbH
2848	1368	52.420164928	13.1618707911	Berlin	14109	Berlin, Königstr.	Königstr. 12	+49 30 80484787	False	True	False	True	True	False	False	None	None	https://www.mcdonalds.de/restaurant/berlin-koenigstr-12	09:00 - 23:00	10:00 - 23:00	09:00 - 23:00	09:00 - 00:00	09:00 - 23:00	10:00 - 00:00	09:00 - 23:00	McDonald's Restaurant	HAM Systemrestaurant GmbH
3104	1636	53.053908912	8.783399269	Bremen	28199	Bremen, Flughafenallee	Flughafenallee 17a	+49 421 53798905	False	True	False	True	True	True	True	None	None	https://www.mcdonalds.de/restaurant/bremen-flughafenallee-17a	07:00 - 00:00	08:00 - 00:00	07:00 - 00:00	07:00 - 00:00	07:00 - 00:00	07:00 - 00:00	07:00 - 00:00	McDonald's Restaurant	BOH Bremen Gastro e.K.
33	55	53.5398383291	10.1043846786	Hamburg	22111	Hamburg, Billstedt Center	Möllner Landstr. 7a	+49 40 7325722	False	False	False	True	True	False	True	None	None	https://www.mcdonalds.de/restaurant/hamburg-moellner-landstr-7a	08:30 - 21:00	geschlossen	08:30 - 21:00	08:30 - 21:00	08:30 - 21:00	08:30 - 21:00	08:30 - 21:00	McDonald's Restaurant	Michael Kaup Systemgastronomie e.K. Möllner Landstr. 7a
289	434	54.0997894128	10.7952873765	Neustadt in Holstein	23730	Neustadt/Holstein	Eutiner Str. 57-59	+49 4561 16166	False	True	False	False	True	True	True	None	None	https://www.mcdonalds.de/restaurant/neustadt-in-holstein-eutiner-str-57-59	07:00 - 00:00	07:00 - 00:00	07:00 - 00:00	07:00 - 01:00	07:00 - 00:00	07:00 - 01:00	07:00 - 00:00	McDonald's Restaurant	Systemgastronomie Kurt Neubaumer e.K.
545	720	48.4747796187	9.22707254413	Pfullingen	72793	Pfullingen, Max-Eyth-Str. 16	Max-Eyth-Str. 16	+49 7121 798612	False	True	False	True	True	True	True	None	None	https://www.mcdonalds.de/restaurant/pfullingen-max-eyth-str-16	07:00 - 01:00	09:00 - 01:00	07:00 - 01:00	07:00 - 05:00	07:00 - 01:00	07:00 - 05:00	07:00 - 01:00	McDonald's Restaurant	Sapper Gastronomiebetriebe e.K.
2593	1090	48.6305925928	13.1911457843	Vilshofen	94474	Vilshofen, Bahnhofsstr.	Bahnhofstr. 1	+49 8541 919710	False	True	False	True	True	True	False	None	None	https://www.mcdonalds.de/restaurant/vilshofen-bahnhofstr-1	07:00 - 01:00	08:00 - 00:00	07:00 - 01:00	07:00 - 02:30	07:00 - 01:00	07:00 - 02:30	07:00 - 01:00	McDonald's Restaurant	C.G. Froschmeier e.K. Niederlassung Vilshofen
2849	1369	49.211171597	9.06992068054	Bad Rappenau	74906	Bad Rappenau, Wilhelm-Hauff-St	Wilhelm-Hauff-Str. 45	+49 7066 9006928	False	True	False	True	False	False	True	None	None	https://www.mcdonalds.de/restaurant/bad-rappenau-wilhelm-hauff-str-45	07:00 - 01:00	08:00 - 01:00	07:00 - 01:00	07:00 - 02:00	07:00 - 01:00	07:00 - 02:00	07:00 - 01:00	McDonald's Restaurant	ICE Wenz Systemgastronomie e.K.
3105	1637	49.2528611766	10.435252209	Aurach	91589	Aurach, An der A6-Ausfahrt 50	Ansbacher Str. 44	+49 9804 9150040	False	True	False	True	True	True	True	None	None	https://www.mcdonalds.de/restaurant/aurach-ansbacher-str-44	07:00 - 00:00	07:00 - 00:00	07:00 - 00:00	07:00 - 01:00	07:00 - 00:00	07:00 - 01:00	07:00 - 00:00	McDonald's Restaurant	Systemgastronomie Sven Strohmayer e.K.
34	57	50.7330418764	7.09759353877	Bonn	53111	Bonn, Poststr.	Poststr. 12	+49 228 9637742	True	False	True	True	True	False	False	None	None	https://www.mcdonalds.de/restaurant/bonn-poststr-12	24h	24h	24h	24h	24h	24h	24h	McDonald's Restaurant	Hahne Systemgastronomie GmbH
290	435	48.6456557439	9.78959120796	Kuchen	73329	Kuchen	Im Gewerbepark 9	+49 7331 81816	False	True	False	True	True	True	False	None	None	https://www.mcdonalds.de/restaurant/kuchen-im-gewerbepark-9	09:00 - 01:00	09:00 - 01:00	09:00 - 01:00	09:00 - 03:00	09:00 - 01:00	09:00 - 03:00	09:00 - 01:00	McDonald's Restaurant	Sapper Gastronomiebetriebe e.K.
546	721	51.2237299748	6.48324235121	Mönchengladbach	41066	Mönchengladbach, Krefelderstr.	Krefelder Str. 672	+49 2161 605845	False	True	False	True	True	True	True	None	None	https://www.mcdonalds.de/restaurant/moenchengladbach-krefelder-str-672	07:00 - 01:00	08:30 - 01:00	07:00 - 01:00	07:00 - 05:00	07:00 - 01:00	07:00 - 05:00	07:00 - 01:00	McDonald's Restaurant	Refro KG
2594	1091	51.5316984886	7.21133995693	Herne	44625	Herne, Am Westerfeld 2	Am Westerfeld 2	+49 2323 946786	False	True	False	True	True	True	True	None	None	https://www.mcdonalds.de/restaurant/herne-am-westerfeld-2	08:00 - 01:00	08:00 - 01:00	08:00 - 01:00	08:00 - 05:00	08:00 - 01:00	08:00 - 05:00	08:00 - 01:00	McDonald's Restaurant	Ph.Scheider KG
2850	1370	50.97317	11.0379	Erfurt	99084	Erfurt, Hauptbahnhof	Willy-Brandt-Platz 12 (Hauptbahnhof)	+49 361 5504296	False	False	False	True	True	False	False	None	None	https://www.mcdonalds.de/restaurant/erfurt-willy-brandt-platz-12-hauptbahnhof	03:00 - 02:00	03:00 - 02:00	03:00 - 02:00	03:00 - 02:00	03:00 - 02:00	03:00 - 02:00	03:00 - 02:00	McDonald's Restaurant	D. Neiss Systemgastronomie Restaurant Anger e.K.
3106	1638	53.182667557	7.999975689	Bad Zwischenahn	26160	Bad Zwischenahn, Pastor-Schulz	Pastor-Schulze-Str. 4	+49 4403 8104155	False	True	False	True	True	True	True	None	None	https://www.mcdonalds.de/restaurant/bad-zwischenahn-pastor-schulze-str-4	07:00 - 00:00	07:00 - 00:00	07:00 - 00:00	24h	07:00 - 00:00	24h	07:00 - 00:00	McDonald's Restaurant	MONTI Systems VI GmbH & Co. KG
35	58	51.2697280765	7.198267795	Wuppertal	42275	Wuppertal, Höhne	Höhne 4	+49 202 592242	False	False	False	True	True	True	True	None	None	https://www.mcdonalds.de/restaurant/wuppertal-hoehne-4	07:00 - 02:00	07:00 - 02:00	07:00 - 02:00	07:00 - 05:00	07:00 - 02:00	07:00 - 05:00	07:00 - 02:00	McDonald's Restaurant	Mecke's Systemgastronomie GmbH
291	436	52.337754058	10.2446948038	Peine	31228	Peine, Dieselstr.	Dieselstr. 8b	+49 5171 71500	False	True	False	True	True	True	True	None	None	https://www.mcdonalds.de/restaurant/peine-dieselstr-8b	07:00 - 01:00	07:00 - 01:00	07:00 - 01:00	24h	07:00 - 01:00	24h	07:00 - 01:00	McDonald's Restaurant	Dr. Werner F. H. Lampe GmbH
547	722	49.5147870512	8.54715849163	Mannheim	68309	Mannheim, Rosslauer Weg	Rosslauer Weg 2-4	+49 621 701046	False	True	False	True	True	True	False	None	None	https://www.mcdonalds.de/restaurant/mannheim-rosslauer-weg-2-4	09:00 - 00:00	09:00 - 00:00	09:00 - 00:00	09:00 - 02:00	09:00 - 00:00	09:00 - 02:00	09:00 - 00:00	McDonald's Restaurant	B. Kalhorifar Systemgastronomie e.K.
2595	1092	49.0200791582	12.0897889559	Regensburg	93047	Regensburg, Weißgerbergraben 2	Weißgerbergraben 26	+49 941 5997500	False	False	False	True	True	False	False	None	None	https://www.mcdonalds.de/restaurant/regensburg-weissgerbergraben-26	11:00 - 02:00	11:00 - 01:00	11:00 - 02:00	11:00 - 02:00	11:00 - 02:00	11:00 - 02:00	11:00 - 02:00	McDonald's Restaurant	Frank Mosher Restaurants e.K.
2851	1371	51.3442667568	12.1755618332	Leuna (OT Günthersdorf)	06237	Günthersdorf, Nova Eventis	Merseburger Landstr. 17 (Einkaufszentrum Saalepark)	+49 34638 39773	False	False	False	True	True	False	False	None	None	https://www.mcdonalds.de/restaurant/leuna-ot-guenthersdorf-merseburger-landstr-17-einkaufszentrum-saalepark	10:00 - 20:00	geschlossen	10:00 - 20:00	10:00 - 22:00	10:00 - 20:00	10:00 - 20:00	10:00 - 20:00	McDonald's Restaurant	Mike Kraft Systemgastronomie e. K.
3107	1639	50.8926664588	6.27476411476	Aldenhoven	52457	Aldenhoven, Kapuziner Str.	Kapuzinerstr. 40	+49 2464 5876501	False	True	False	True	True	True	True	None	None	https://www.mcdonalds.de/restaurant/aldenhoven-kapuzinerstr-40	08:30 - 01:00	08:30 - 01:00	08:30 - 01:00	08:30 - 03:00	08:30 - 01:00	08:30 - 03:00	08:30 - 01:00	McDonald's Restaurant	RD Peter H. Hess Restaurationsbetriebe GmbH
36	60	50.5849331677	8.67705279831	Gießen	35390	Giessen, Neue Bäue	Neuen Bäue 22	+49 64198 444920	False	False	False	True	True	True	True	None	None	https://www.mcdonalds.de/restaurant/giessen-neuen-baeue-22	07:00 - 01:00	08:00 - 01:00	07:00 - 01:00	07:00 - 03:00	07:00 - 01:00	08:00 - 03:00	07:00 - 01:00	McDonald's Restaurant	Stark GmbH & Co. KG
292	437	53.3918655698	7.20824474862	Emden	26721	Emden, Herderstr.	Herderstr. 2	+49 4921 40247	True	True	True	True	True	True	True	None	None	https://www.mcdonalds.de/restaurant/emden-herderstr-2	24h	24h	24h	24h	24h	24h	24h	McDonald's Restaurant	McDonald's Deutschland LLC
548	723	48.7763600797	8.17952844941	Sinzheim	76547	Sinzheim, Industrie Str	Industriestr. 26	+49 7221 988830	True	True	True	True	True	True	True	None	None	https://www.mcdonalds.de/restaurant/sinzheim-industriestr-26	24h	24h	24h	24h	24h	24h	24h	McDonald's Restaurant	McDonald's Restaurant Hans Braun Systemgastronomie "e.K."
2596	1093	53.6852854798	9.98467956748	Norderstedt	22850	Norderstedt, Herold Center	Berliner Allee 43	+49 40 51321340	False	False	False	True	True	False	False	None	None	https://www.mcdonalds.de/restaurant/norderstedt-berliner-allee-43	09:30 - 20:00	geschlossen	09:30 - 20:00	09:30 - 20:00	09:30 - 20:00	09:30 - 20:00	09:30 - 20:00	McDonald's Restaurant	Wilfried Cichon e.K.
2852	1372	48.12100705	11.5858917239	München	81541	München, Regerstr.	Regerstr. 25	+49 89 44119555	False	True	False	True	True	True	True	None	None	https://www.mcdonalds.de/restaurant/muenchen-regerstr-25	06:30 - 02:00	09:00 - 02:00	06:30 - 02:00	06:30 - 05:00	06:30 - 02:00	09:00 - 05:00	06:30 - 02:00	McDonald's Restaurant	REINERS Gastronomie GmbH & Co. KG
3108	1640	50.9808761189	6.84412010896	Köln	50829	Köln, Spenrather Weg	Spenrather Weg 11	+49 221 95439066	False	True	False	True	True	True	True	None	None	https://www.mcdonalds.de/restaurant/koeln-spenrather-weg-11	07:00 - 02:00	09:00 - 02:00	07:00 - 02:00	07:00 - 04:00	07:00 - 02:00	07:00 - 04:00	07:00 - 02:00	McDonald's Restaurant	McDonald's Deutschland LLC
37	64	50.9611142408	6.9546439839	Köln	50733	Köln, Neusser Str.	Neusser Str. 204	+49 221 735338	False	False	False	True	True	True	False	None	None	https://www.mcdonalds.de/restaurant/koeln-neusser-str-204	07:00 - 02:00	07:00 - 02:00	07:00 - 02:00	07:00 - 04:00	07:00 - 02:00	07:00 - 04:00	07:00 - 02:00	McDonald's Restaurant	Ekwek Systemgastronomie GmbH
293	438	52.348814964	9.69031748278	Hannover	30453	Hannover, Nenndorfer Chaussee	Nenndorfer Chaussee 9	+49 511 4340858	False	True	False	True	True	True	False	None	None	https://www.mcdonalds.de/restaurant/hannover-nenndorfer-chaussee-9	07:00 - 01:00	08:00 - 01:00	07:00 - 01:00	07:00 - 03:00	07:00 - 01:00	07:00 - 03:00	07:00 - 01:00	McDonald's Restaurant	McDonald's Deutschland LLC
549	724	52.2058270063	8.78020775548	Löhne	32584	Löhne, Ringstr.	Ringstr. 27	+49 5731 785315	False	True	False	True	True	True	False	None	None	https://www.mcdonalds.de/restaurant/loehne-ringstr-27	07:00 - 01:00	08:00 - 01:00	07:00 - 01:00	07:00 - 04:00	07:00 - 01:00	07:00 - 04:00	07:00 - 01:00	McDonald's Restaurant	GWK Löhne GmbH
2597	1094	50.045805038	8.21567575303	Wiesbaden	65203	Wiesbaden, Äppelallee-Center	Äppelallee 69	+49 611 58027847	False	False	False	True	True	False	False	None	None	https://www.mcdonalds.de/restaurant/wiesbaden-aeppelallee-69	09:30 - 21:00	geschlossen	09:30 - 21:00	09:30 - 21:00	09:30 - 21:00	09:30 - 21:30	09:30 - 21:00	McDonald's Restaurant	Gier GmbH & Co. KG
2853	1373	50.7679474633	6.09038827051	Aachen	52064	Aachen, Hauptbahnhof	Zollamtstr. 1 (Bahnhofsplatz)	+49 241 1684939	False	False	False	True	True	False	False	None	None	https://www.mcdonalds.de/restaurant/aachen-zollamtstr-1-bahnhofsplatz	06:00 - 24:00	06:00 - 24:00	06:00 - 24:00	06:00 - 24:00	06:00 - 24:00	06:00 - 24:00	06:00 - 24:00	McDonald's Restaurant	Fast Food Schröder GmbH & Co. KG
3109	1641	48.6150668338	10.2060717401	Herbrechtingen	89542	Herbrechtingen, Industriepark	Am Bühlfeld 1	+49 7324 9833369	False	True	False	True	True	False	True	None	None	https://www.mcdonalds.de/restaurant/herbrechtingen-am-buehlfeld-1	07:00 - 00:00	08:00 - 00:00	07:00 - 00:00	07:00 - 02:00	07:00 - 00:00	07:00 - 02:00	07:00 - 00:00	McDonald's Restaurant	Gerhard Schmid
4901	1725	48.1470983481	11.7900909556	Parsdorf	85599	Parsdorf, Gewerbegebiet Mitte	Taxetstraße 2	+49 89 90019156	False	True	False	True	True	True	True	None	None	https://www.mcdonalds.de/restaurant/parsdorf-taxetstrasse-2	07:00 - 01:00	08:00 - 01:00	07:00 - 01:00	07:00 - 03:00	07:00 - 01:00	07:00 - 03:00	07:00 - 01:00	McDonald's Restaurant	Heinritzi GmbH & Co. Restaurant KG
38	65	50.6860142539	7.15283538519	Bonn	53173	Bonn-Bad Godesb., Ännchenpl.	Aennchenplatz 8	+49 228 352563	False	False	False	True	True	False	False	None	None	https://www.mcdonalds.de/restaurant/bonn-aennchenplatz-8	09:00 - 00:00	10:00 - 00:00	09:00 - 00:00	09:00 - 01:00	09:00 - 00:00	09:00 - 01:00	09:00 - 00:00	McDonald's Restaurant	Westphal Systemgastronomie GmbH
294	439	50.300050725	8.69281159764	Rosbach v.d. Höhe	61191	Rosbach, Dieselstr.	Dieselstr. 1b	+49 6003 6259	False	True	False	True	True	True	True	None	None	https://www.mcdonalds.de/restaurant/rosbach-vd-hoehe-dieselstr-1b	07:00 - 02:00	08:00 - 02:00	07:00 - 02:00	07:00 - 04:00	07:00 - 02:00	07:00 - 04:00	07:00 - 02:00	McDonald's Restaurant	Frank Buchner Systemgastronomie e.K.
550	725	48.6329982815	11.7779877465	Mainburg	84048	Mainburg, Äussere Freisingerst	Straßäcker 2	+49 8751 1475	False	True	False	True	True	True	True	None	None	https://www.mcdonalds.de/restaurant/mainburg-strassaecker-2	08:00 - 01:00	08:00 - 00:00	08:00 - 01:00	08:00 - 04:00	08:00 - 01:00	08:00 - 04:00	08:00 - 01:00	McDonald's Restaurant	Frank Mosher Restaurants e.K.
